Fips,Name,Population,Longitude,Latitude,Km2,UrbanDensity,PercentUrban,Emp-11,Est-11,Pay-11,Emp-21,Est-21,Pay-21,Emp-22,Est-22,Pay-22,Emp-23,Est-23,Pay-23,Emp-42,Est-42,Pay-42,Emp-51,Est-51,Pay-51,Emp-52,Est-52,Pay-52,Emp-53,Est-53,Pay-53,Emp-54,Est-54,Pay-54,Emp-55,Est-55,Pay-55,Emp-56,Est-56,Pay-56,Emp-61,Est-61,Pay-61,Emp-62,Est-62,Pay-62,Emp-71,Est-71,Pay-71,Emp-72,Est-72,Pay-72,Emp-81,Est-81,Pay-81,Emp-99,Est-99,Pay-99,state,year
2016,Aleutians West Census Area,6.0,178.88,51.57,11746.24,0.0,0.0,6.0,5.0,602.0,,,,,,,39.0,5.0,5219.0,112.0,13.0,8954.0,20.0,3.0,1129.0,,,,32.0,3.0,2005.0,13.0,4.0,744.0,,,,32.0,7.0,1294.0,,,,102.0,13.0,5426.0,,,,118.0,7.0,4066.0,47.0,10.0,3268.0,,,,AK,2017
2060,Bristol Bay Borough,1.0,-156.88,58.74,1327.31,0.0,0.0,,,,,,,,,,4.0,6.0,488.0,0.0,4.0,0.0,,,,,,,6.0,3.0,894.0,,,,,,,,,,,,,0.0,3.0,0.0,2.0,5.0,125.0,55.0,20.0,5689.0,2.0,4.0,150.0,,,,AK,2017
2150,Kodiak Island Borough,14.0,-153.36,57.54,18274.64,2.05,0.0,40.0,88.0,6536.0,,,,,,,147.0,40.0,9825.0,72.0,20.0,4373.0,57.0,9.0,2406.0,73.0,15.0,4421.0,70.0,15.0,2620.0,59.0,21.0,2248.0,,,,191.0,15.0,12700.0,37.0,5.0,483.0,713.0,44.0,37088.0,58.0,20.0,1791.0,427.0,47.0,10123.0,223.0,39.0,6620.0,,,,AK,2017
2188,Northwest Arctic Borough,8.0,-159.98,67.24,95249.25,1.99,0.0,,,,0.0,3.0,0.0,,,,59.0,7.0,6936.0,,,,39.0,4.0,2630.0,,,,3.0,3.0,22.0,,,,,,,154.0,7.0,7057.0,,,,0.0,5.0,0.0,,,,131.0,11.0,4087.0,51.0,10.0,1117.0,,,,AK,2017
2050,Bethel Census Area,18.0,-162.31,60.39,109948.07,0.0,0.0,0.0,6.0,0.0,,,,40.0,6.0,966.0,14.0,10.0,760.0,17.0,4.0,1006.0,66.0,5.0,3587.0,35.0,5.0,1908.0,66.0,9.0,1934.0,18.0,6.0,826.0,,,,64.0,17.0,3012.0,0.0,5.0,0.0,0.0,52.0,0.0,69.0,5.0,1383.0,40.0,18.0,898.0,79.0,28.0,1970.0,,,,AK,2017
2185,North Slope Borough,10.0,-153.82,69.53,233609.66,0.0,0.0,,,,349.0,9.0,60115.0,,,,0.0,9.0,0.0,345.0,14.0,28208.0,48.0,11.0,3492.0,,,,93.0,8.0,6293.0,41.0,6.0,3512.0,0.0,3.0,0.0,501.0,11.0,36146.0,,,,0.0,9.0,0.0,0.0,3.0,0.0,716.0,31.0,43879.0,38.0,9.0,1580.0,,,,AK,2017
2220,Sitka City and Borough,9.0,-135.46,57.41,8302.41,0.0,0.0,22.0,29.0,877.0,,,,,,,156.0,40.0,11073.0,40.0,8.0,1901.0,47.0,10.0,1747.0,60.0,11.0,3543.0,43.0,16.0,2327.0,63.0,19.0,1996.0,67.0,3.0,6736.0,36.0,13.0,830.0,57.0,7.0,1829.0,791.0,22.0,51035.0,36.0,16.0,2214.0,392.0,41.0,12746.0,196.0,34.0,7635.0,,,,AK,2017
2090,Fairbanks North Star Borough,100.0,-146.78,64.86,19254.78,2.14,0.03,8.0,4.0,353.0,747.0,16.0,77606.0,335.0,13.0,30923.0,2028.0,350.0,173781.0,756.0,78.0,43159.0,525.0,37.0,26935.0,720.0,99.0,43006.0,751.0,155.0,41687.0,1272.0,215.0,83530.0,110.0,12.0,7803.0,1160.0,129.0,54573.0,371.0,40.0,9886.0,6458.0,312.0,372291.0,576.0,76.0,9067.0,3011.0,234.0,72180.0,1284.0,235.0,43222.0,,,,AK,2017
2130,Ketchikan Gateway Borough,14.0,-131.01,55.49,13384.0,2.03,0.0,100.0,20.0,9858.0,,,,,,,242.0,69.0,16240.0,143.0,15.0,9088.0,97.0,12.0,4529.0,213.0,19.0,11026.0,116.0,29.0,5347.0,116.0,33.0,5652.0,0.0,6.0,0.0,196.0,32.0,14606.0,28.0,7.0,772.0,711.0,46.0,35127.0,71.0,22.0,5120.0,571.0,62.0,16020.0,159.0,47.0,4628.0,,,,AK,2017
2170,Matanuska-Susitna Borough,101.0,-149.48,62.34,64750.04,0.0,0.0,30.0,15.0,613.0,10.0,8.0,2185.0,0.0,6.0,0.0,2190.0,467.0,161821.0,238.0,47.0,13205.0,482.0,35.0,31116.0,500.0,76.0,27737.0,236.0,82.0,8285.0,680.0,167.0,41358.0,75.0,6.0,6859.0,712.0,121.0,24375.0,288.0,26.0,7657.0,4545.0,331.0,221701.0,310.0,67.0,9908.0,2512.0,236.0,53789.0,899.0,200.0,27006.0,,,,AK,2017
2180,Nome Census Area,10.0,-163.09,65.0,61428.5,2.38,0.0,,,,0.0,3.0,0.0,,,,38.0,13.0,4224.0,35.0,4.0,2080.0,51.0,6.0,1748.0,39.0,5.0,3495.0,14.0,10.0,929.0,11.0,6.0,339.0,,,,43.0,6.0,1101.0,,,,0.0,29.0,0.0,41.0,5.0,323.0,146.0,19.0,4770.0,75.0,18.0,2428.0,,,,AK,2017
2070,Dillingham Census Area,5.0,-158.2,59.9,49176.12,0.0,0.0,0.0,3.0,68.0,,,,,,,17.0,7.0,2012.0,,,,,,,10.0,4.0,381.0,11.0,4.0,755.0,17.0,3.0,948.0,,,,,,,,,,687.0,8.0,41956.0,13.0,5.0,543.0,45.0,12.0,1239.0,7.0,5.0,495.0,,,,AK,2017
2100,Haines Borough,3.0,-135.34,59.08,6410.48,0.0,0.0,2.0,5.0,53.0,,,,,,,55.0,17.0,6305.0,,,,15.0,4.0,334.0,,,,4.0,6.0,84.0,8.0,6.0,338.0,,,,16.0,5.0,648.0,0.0,3.0,0.0,130.0,10.0,3817.0,62.0,15.0,2933.0,77.0,18.0,1902.0,16.0,8.0,313.0,,,,AK,2017
2282,Yakutat City and Borough,1.0,-139.34,59.64,20579.97,0.0,0.0,,,,,,,,,,,,,,,,,,,,,,,,,,,,,,,,,,,,,22.0,4.0,909.0,,,,10.0,6.0,797.0,,,,,,,AK,2017
2110,Juneau City and Borough,32.0,-134.42,58.3,7114.76,2.51,0.02,51.0,25.0,3012.0,791.0,5.0,95136.0,0.0,7.0,0.0,550.0,118.0,44384.0,309.0,39.0,17595.0,249.0,27.0,12018.0,317.0,49.0,24450.0,202.0,64.0,8176.0,508.0,92.0,30504.0,101.0,9.0,9754.0,391.0,62.0,18606.0,139.0,17.0,3658.0,2226.0,133.0,129242.0,472.0,37.0,5337.0,1382.0,124.0,31843.0,592.0,102.0,24477.0,,,,AK,2017
2164,Lake and Peninsula Borough,1.0,-156.15,58.33,68724.82,0.0,0.0,0.0,4.0,81.0,,,,14.0,4.0,722.0,14.0,4.0,1508.0,,,,,,,,,,5.0,3.0,43.0,,,,,,,,,,,,,,,,,,,17.0,10.0,3933.0,0.0,3.0,0.0,,,,AK,2017
2240,Southeast Fairbanks Census Area,7.0,-143.99,63.85,65073.9,0.0,0.0,10.0,5.0,291.0,0.0,6.0,0.0,45.0,5.0,3825.0,95.0,14.0,5655.0,66.0,3.0,2194.0,22.0,9.0,807.0,15.0,4.0,674.0,9.0,3.0,447.0,47.0,11.0,3327.0,,,,15.0,6.0,365.0,12.0,4.0,360.0,102.0,10.0,4503.0,0.0,4.0,72.0,153.0,29.0,4185.0,15.0,12.0,326.0,,,,AK,2017
2290,Yukon-Koyukuk Census Area,5.0,-153.55,65.23,383072.25,0.0,0.0,,,,23.0,6.0,1646.0,17.0,4.0,703.0,11.0,7.0,511.0,30.0,4.0,1564.0,11.0,3.0,281.0,,,,,,,0.0,4.0,0.0,,,,,,,,,,32.0,9.0,1173.0,,,,12.0,7.0,253.0,21.0,5.0,455.0,,,,AK,2017
2020,Anchorage Municipality,298.0,-149.89,61.22,4493.05,3.05,1.52,16.0,38.0,2405.0,4925.0,55.0,587807.0,659.0,19.0,70987.0,9066.0,916.0,802520.0,5856.0,382.0,368993.0,4533.0,172.0,317244.0,4815.0,396.0,370225.0,2499.0,428.0,125479.0,14576.0,1150.0,1123023.0,4358.0,123.0,481663.0,12828.0,554.0,655083.0,1803.0,117.0,62772.0,27548.0,1312.0,1656489.0,2701.0,159.0,50073.0,15436.0,800.0,392083.0,5289.0,780.0,205725.0,5.0,5.0,65.0,AK,2017
2013,Aleutians East Borough,3.0,-162.89,55.05,18521.02,0.0,0.0,4.0,5.0,454.0,,,,12.0,3.0,819.0,,,,,,,,,,,,,18.0,3.0,382.0,,,,,,,0.0,4.0,0.0,,,,0.0,10.0,0.0,,,,31.0,9.0,410.0,2.0,3.0,89.0,,,,AK,2017
2068,Denali Borough,2.0,-149.65,63.88,32793.42,0.0,0.0,,,,0.0,5.0,0.0,,,,23.0,5.0,1526.0,,,,4.0,3.0,96.0,,,,,,,0.0,4.0,0.0,,,,3.0,4.0,518.0,,,,11.0,3.0,470.0,12.0,9.0,2242.0,174.0,38.0,23553.0,3.0,3.0,65.0,,,,AK,2017
2261,Valdez-Cordova Census Area,9.0,0.0,0.0,91088.15,0.0,0.0,26.0,66.0,1937.0,,,,0.0,9.0,0.0,77.0,30.0,7124.0,101.0,11.0,8586.0,97.0,15.0,7397.0,0.0,7.0,0.0,16.0,9.0,867.0,104.0,28.0,6076.0,,,,34.0,51.0,1565.0,17.0,6.0,336.0,518.0,27.0,23329.0,76.0,24.0,2270.0,326.0,70.0,12676.0,146.0,33.0,4485.0,3.0,3.0,8.0,AK,2017
2122,Kenai Peninsula Borough,58.0,-151.79,60.1,42552.09,0.0,0.0,75.0,112.0,6548.0,761.0,19.0,91636.0,182.0,9.0,20906.0,865.0,269.0,57435.0,345.0,58.0,23558.0,248.0,28.0,12022.0,276.0,58.0,16736.0,255.0,75.0,14324.0,461.0,130.0,22418.0,104.0,5.0,5145.0,334.0,90.0,19491.0,191.0,22.0,3163.0,4075.0,253.0,201227.0,201.0,72.0,5656.0,1762.0,289.0,49684.0,707.0,194.0,22983.0,3.0,5.0,83.0,AK,2017
2105,Hoonah-Angoon Census Area,2.0,-135.7,58.06,17787.36,0.0,0.0,,,,,,,0.0,3.0,0.0,7.0,5.0,381.0,,,,,,,,,,,,,,,,,,,,,,,,,32.0,7.0,751.0,0.0,5.0,0.0,34.0,15.0,2143.0,,,,,,,AK,2017
2230,Skagway Municipality,1.0,-135.41,59.62,1127.95,0.0,0.0,,,,,,,,,,54.0,6.0,6852.0,,,,,,,,,,,,,,,,,,,28.0,9.0,6165.0,,,,5.0,5.0,143.0,10.0,5.0,650.0,58.0,23.0,6112.0,19.0,4.0,380.0,,,,AK,2017
2198,Prince of Wales-Hyder Census Area,6.0,-132.97,55.42,15282.26,1.67,0.0,84.0,13.0,5394.0,,,,48.0,4.0,3401.0,90.0,18.0,3684.0,,,,,,,27.0,6.0,651.0,30.0,6.0,923.0,,,,,,,,,,,,,172.0,12.0,6129.0,3.0,3.0,146.0,68.0,23.0,3562.0,39.0,16.0,546.0,,,,AK,2017
2275,Wrangell City and Borough,2.0,-132.04,56.2,6945.64,0.0,0.0,15.0,14.0,454.0,,,,,,,15.0,10.0,531.0,,,,11.0,3.0,632.0,0.0,3.0,0.0,6.0,4.0,139.0,13.0,6.0,539.0,,,,,,,,,,277.0,8.0,9824.0,3.0,4.0,156.0,44.0,5.0,1092.0,27.0,7.0,721.0,,,,AK,2017
2195,Petersburg Borough,3.0,-133.46,56.75,7949.24,0.0,0.0,25.0,21.0,1757.0,,,,,,,33.0,16.0,3352.0,32.0,8.0,1937.0,44.0,5.0,1457.0,23.0,3.0,1136.0,5.0,4.0,146.0,14.0,6.0,523.0,,,,15.0,4.0,433.0,0.0,3.0,0.0,156.0,9.0,8198.0,5.0,3.0,142.0,71.0,13.0,1689.0,41.0,14.0,887.0,,,,AK,2017
2158,Kusilvak Census Area,8.0,-163.76,62.2,46845.58,0.0,0.0,,,,,,,,,,,,,,,,,,,,,,6.0,3.0,308.0,,,,,,,,,,0.0,8.0,0.0,0.0,15.0,0.0,19.0,3.0,59.0,,,,18.0,7.0,733.0,,,,AK,2017
1099,Monroe County,22.0,-90.18,38.27,2679.89,0.0,0.0,207.0,29.0,9904.0,,,,57.0,7.0,3526.0,162.0,15.0,7483.0,169.0,19.0,8564.0,67.0,9.0,2799.0,153.0,33.0,7168.0,42.0,12.0,1533.0,39.0,16.0,1538.0,,,,57.0,10.0,1632.0,0.0,3.0,0.0,717.0,30.0,24670.0,,,,406.0,26.0,4616.0,227.0,47.0,4546.0,,,,AL,2017
1079,Lawrence County,33.0,-80.35,41.0,1856.9,0.0,0.0,,,,,,,0.0,4.0,0.0,204.0,32.0,9167.0,122.0,17.0,3424.0,23.0,7.0,851.0,111.0,26.0,5151.0,14.0,7.0,390.0,147.0,32.0,7486.0,,,,47.0,14.0,1783.0,,,,777.0,34.0,21406.0,6.0,3.0,107.0,481.0,40.0,6496.0,215.0,66.0,4618.0,,,,AL,2017
1081,Lee County,157.0,-96.96,30.3,1594.94,2.36,0.45,79.0,15.0,2847.0,,,,241.0,8.0,20008.0,2382.0,244.0,119789.0,1090.0,92.0,50058.0,866.0,38.0,37219.0,1103.0,172.0,60031.0,602.0,155.0,21081.0,1350.0,256.0,57064.0,99.0,8.0,3188.0,3863.0,170.0,88868.0,383.0,32.0,8900.0,6647.0,263.0,269478.0,539.0,24.0,7757.0,8155.0,366.0,114371.0,1967.0,274.0,41863.0,,,,AL,2017
1093,Marion County,30.0,-94.34,32.79,1925.6,0.0,0.0,71.0,10.0,2339.0,,,,,,,189.0,17.0,2960.0,240.0,27.0,10558.0,49.0,9.0,2136.0,421.0,49.0,17047.0,15.0,9.0,525.0,80.0,25.0,2204.0,0.0,3.0,0.0,420.0,15.0,9998.0,14.0,3.0,49.0,947.0,89.0,37222.0,13.0,6.0,300.0,728.0,55.0,8705.0,250.0,59.0,5346.0,,,,AL,2017
1107,Pickens County,20.0,-84.47,34.46,2304.08,0.0,0.0,89.0,20.0,3138.0,,,,,,,278.0,21.0,14079.0,47.0,8.0,1617.0,22.0,6.0,697.0,141.0,22.0,6084.0,,,,105.0,14.0,3476.0,0.0,3.0,0.0,,,,,,,554.0,25.0,16691.0,10.0,5.0,75.0,163.0,12.0,2148.0,117.0,29.0,1534.0,,,,AL,2017
1119,Sumter County,13.0,-82.08,28.67,2364.6,0.0,0.0,40.0,5.0,1842.0,,,,,,,0.0,9.0,0.0,163.0,12.0,5280.0,16.0,5.0,1009.0,82.0,14.0,4163.0,22.0,7.0,750.0,15.0,6.0,419.0,,,,165.0,9.0,9163.0,,,,325.0,19.0,9003.0,11.0,5.0,238.0,344.0,22.0,3872.0,75.0,17.0,1530.0,,,,AL,2017
1073,Jefferson County,659.0,-94.17,29.83,2910.7,2.48,1.88,127.0,12.0,3414.0,690.0,21.0,56935.0,0.0,41.0,0.0,17241.0,1070.0,1141666.0,17712.0,1049.0,1146437.0,8801.0,295.0,627612.0,21940.0,1292.0,1832531.0,5861.0,766.0,328610.0,16247.0,1904.0,1198393.0,6623.0,178.0,776497.0,24809.0,749.0,736958.0,6950.0,171.0,227320.0,55350.0,1767.0,3285080.0,5143.0,204.0,103605.0,31838.0,1481.0,550061.0,19245.0,1809.0,633258.0,29.0,12.0,616.0,AL,2017
1023,Choctaw County,13.0,-89.24,33.36,2385.51,0.0,0.0,245.0,22.0,11634.0,,,,,,,190.0,15.0,8559.0,38.0,5.0,1173.0,27.0,6.0,1249.0,67.0,16.0,3383.0,11.0,5.0,173.0,52.0,20.0,1377.0,,,,12.0,5.0,291.0,,,,372.0,24.0,13638.0,,,,147.0,19.0,2040.0,135.0,41.0,3224.0,,,,AL,2017
1059,Franklin County,32.0,-95.22,33.2,1675.09,0.0,0.0,66.0,13.0,2128.0,43.0,3.0,1807.0,0.0,3.0,0.0,252.0,37.0,9327.0,89.0,17.0,3995.0,44.0,9.0,1605.0,393.0,55.0,13980.0,37.0,19.0,914.0,128.0,25.0,5078.0,66.0,7.0,5014.0,0.0,7.0,0.0,,,,1059.0,48.0,35952.0,17.0,6.0,274.0,675.0,42.0,8010.0,255.0,58.0,5792.0,,,,AL,2017
1091,Marengo County,20.0,-87.76,32.2,2544.89,0.0,0.0,227.0,19.0,9862.0,,,,0.0,4.0,0.0,308.0,29.0,13496.0,90.0,16.0,4587.0,41.0,8.0,1881.0,216.0,32.0,11010.0,95.0,9.0,3109.0,86.0,16.0,3195.0,,,,462.0,15.0,15862.0,0.0,3.0,0.0,1189.0,56.0,37496.0,30.0,8.0,856.0,486.0,40.0,6043.0,258.0,58.0,4525.0,,,,AL,2017
1113,Russell County,58.0,-98.8,38.9,1676.28,1.84,0.14,40.0,11.0,1249.0,,,,61.0,4.0,5372.0,496.0,71.0,17656.0,142.0,17.0,6682.0,96.0,6.0,4940.0,387.0,66.0,16828.0,147.0,43.0,5245.0,217.0,46.0,6756.0,71.0,7.0,5668.0,258.0,22.0,9161.0,99.0,6.0,2804.0,1374.0,66.0,47890.0,44.0,7.0,593.0,1654.0,92.0,23123.0,603.0,107.0,13499.0,,,,AL,2017
1019,Cherokee County,26.0,-95.18,31.84,1553.87,0.0,0.0,76.0,7.0,2440.0,,,,0.0,3.0,0.0,78.0,28.0,2544.0,111.0,16.0,4214.0,23.0,4.0,1332.0,137.0,25.0,5276.0,33.0,9.0,1681.0,72.0,21.0,2103.0,,,,523.0,10.0,9403.0,,,,457.0,35.0,17614.0,10.0,3.0,185.0,512.0,35.0,6052.0,265.0,46.0,3936.0,,,,AL,2017
1039,Covington County,38.0,-86.46,31.2,2703.43,0.0,0.0,54.0,10.0,2344.0,,,,0.0,3.0,0.0,464.0,73.0,17469.0,499.0,34.0,17784.0,107.0,15.0,3382.0,342.0,62.0,16173.0,93.0,24.0,2225.0,286.0,62.0,11347.0,,,,478.0,27.0,10097.0,,,,1636.0,88.0,59992.0,58.0,13.0,1377.0,886.0,62.0,12321.0,529.0,90.0,11950.0,,,,AL,2017
1041,Crenshaw County,14.0,-86.32,31.68,1582.28,0.0,0.0,112.0,15.0,5595.0,,,,,,,116.0,17.0,4197.0,611.0,12.0,24411.0,,,,104.0,16.0,4854.0,11.0,6.0,307.0,32.0,14.0,965.0,,,,15.0,7.0,813.0,,,,449.0,15.0,13843.0,,,,171.0,15.0,2017.0,92.0,28.0,1891.0,,,,AL,2017
1047,Dallas County,41.0,-96.78,32.76,2573.92,1.82,0.03,53.0,10.0,3165.0,,,,61.0,3.0,5124.0,446.0,44.0,21944.0,204.0,21.0,8348.0,98.0,12.0,4715.0,310.0,49.0,14646.0,77.0,26.0,1924.0,247.0,49.0,9118.0,,,,625.0,24.0,10943.0,174.0,6.0,5412.0,1778.0,99.0,69791.0,46.0,7.0,864.0,844.0,57.0,11078.0,700.0,91.0,14320.0,,,,AL,2017
1077,Lauderdale County,93.0,-87.67,34.9,1864.33,1.94,0.19,111.0,16.0,4985.0,,,,,,,1476.0,138.0,69641.0,1201.0,81.0,51521.0,436.0,29.0,13403.0,957.0,182.0,56652.0,409.0,103.0,13181.0,686.0,149.0,26433.0,116.0,6.0,6036.0,508.0,66.0,14035.0,385.0,21.0,7198.0,5062.0,244.0,200938.0,378.0,25.0,4154.0,4401.0,185.0,60493.0,1432.0,235.0,29022.0,6.0,3.0,27.0,AL,2017
1085,Lowndes County,10.0,-83.26,30.82,1877.98,0.0,0.0,89.0,5.0,2479.0,,,,,,,183.0,11.0,9506.0,,,,,,,24.0,7.0,1214.0,9.0,6.0,149.0,9.0,5.0,428.0,,,,,,,,,,128.0,7.0,4419.0,,,,0.0,3.0,0.0,29.0,9.0,512.0,,,,AL,2017
1087,Macon County,19.0,-88.96,39.85,1588.44,0.0,0.0,,,,,,,,,,76.0,14.0,4193.0,13.0,5.0,574.0,14.0,3.0,602.0,35.0,9.0,1346.0,33.0,12.0,824.0,31.0,11.0,2018.0,,,,292.0,9.0,7296.0,,,,1623.0,22.0,110630.0,,,,363.0,21.0,4898.0,85.0,31.0,1670.0,,,,AL,2017
1083,Limestone County,92.0,-96.58,31.53,1572.71,0.0,0.0,,,,0.0,3.0,0.0,,,,1146.0,152.0,50087.0,793.0,54.0,38854.0,223.0,20.0,10951.0,426.0,100.0,23122.0,188.0,60.0,5902.0,802.0,123.0,60137.0,64.0,7.0,3908.0,552.0,64.0,17573.0,178.0,12.0,4663.0,2446.0,142.0,92954.0,100.0,15.0,2238.0,2291.0,112.0,28562.0,1021.0,152.0,26291.0,,,,AL,2017
1117,Shelby County,209.0,-94.13,31.77,2096.54,1.68,0.21,174.0,14.0,11206.0,316.0,14.0,24256.0,0.0,32.0,0.0,5216.0,484.0,287596.0,5717.0,441.0,405024.0,5001.0,111.0,357822.0,9139.0,407.0,706689.0,1293.0,238.0,78203.0,5634.0,609.0,322576.0,1702.0,54.0,210305.0,8197.0,321.0,318504.0,855.0,62.0,19575.0,7867.0,493.0,333423.0,1280.0,75.0,28437.0,8465.0,411.0,133303.0,4423.0,499.0,132452.0,16.0,7.0,215.0,AL,2017
1115,St. Clair County,87.0,-93.79,38.06,1692.87,0.0,0.0,17.0,5.0,420.0,,,,58.0,9.0,4473.0,1222.0,160.0,52709.0,1677.0,80.0,68224.0,96.0,21.0,6586.0,500.0,79.0,22260.0,128.0,44.0,5553.0,645.0,102.0,20973.0,72.0,4.0,2949.0,1359.0,64.0,42029.0,26.0,9.0,276.0,2145.0,101.0,78324.0,25.0,10.0,670.0,2299.0,120.0,30646.0,936.0,156.0,20974.0,,,,AL,2017
1133,Winston County,24.0,-89.05,33.06,1637.19,0.0,0.0,32.0,5.0,734.0,,,,,,,123.0,30.0,5102.0,312.0,31.0,12805.0,63.0,6.0,2042.0,171.0,31.0,6840.0,33.0,12.0,1619.0,71.0,24.0,2350.0,0.0,7.0,0.0,191.0,13.0,4840.0,,,,748.0,45.0,23237.0,50.0,5.0,793.0,381.0,28.0,4595.0,173.0,38.0,3200.0,,,,AL,2017
1003,Baldwin County,203.0,-83.26,33.09,4352.73,0.0,0.0,10.0,8.0,368.0,93.0,11.0,5929.0,266.0,9.0,18738.0,3571.0,532.0,168819.0,2719.0,236.0,137727.0,611.0,94.0,24695.0,1692.0,368.0,106061.0,1872.0,356.0,66151.0,2112.0,467.0,109755.0,395.0,26.0,32690.0,3046.0,277.0,86971.0,1476.0,49.0,53729.0,7778.0,503.0,335463.0,1283.0,88.0,25355.0,13151.0,580.0,243765.0,3086.0,493.0,77964.0,4.0,4.0,102.0,AL,2017
1043,Cullman County,82.0,-86.88,34.13,1955.13,0.0,0.0,123.0,16.0,3743.0,,,,134.0,6.0,10041.0,1085.0,158.0,43349.0,1103.0,93.0,55657.0,216.0,19.0,10158.0,839.0,119.0,50363.0,178.0,57.0,6617.0,419.0,101.0,16036.0,271.0,8.0,17088.0,963.0,61.0,29405.0,98.0,13.0,2155.0,4137.0,195.0,151438.0,121.0,17.0,1838.0,2906.0,148.0,41069.0,1329.0,202.0,32144.0,,,,AL,2017
1051,Elmore County,81.0,-86.13,32.58,1701.78,0.0,0.0,53.0,8.0,3157.0,,,,109.0,12.0,9446.0,752.0,133.0,32496.0,327.0,41.0,14613.0,85.0,15.0,3966.0,485.0,80.0,25483.0,124.0,59.0,3856.0,458.0,100.0,23462.0,13.0,3.0,492.0,186.0,46.0,6333.0,315.0,5.0,8531.0,2212.0,119.0,68172.0,82.0,14.0,1174.0,2856.0,104.0,53923.0,937.0,149.0,20375.0,,,,AL,2017
1069,Houston County,104.0,-95.39,31.34,1506.28,1.6,0.18,16.0,5.0,745.0,,,,0.0,4.0,0.0,1724.0,196.0,73332.0,3400.0,178.0,176133.0,821.0,49.0,29980.0,1184.0,194.0,68976.0,478.0,94.0,19443.0,1130.0,214.0,61388.0,519.0,25.0,34377.0,2390.0,113.0,68572.0,423.0,20.0,8853.0,9632.0,325.0,496533.0,441.0,30.0,8248.0,5164.0,258.0,75066.0,2051.0,285.0,46398.0,,,,AL,2017
1071,Jackson County,52.0,-96.56,28.92,2919.14,0.0,0.0,,,,0.0,3.0,0.0,,,,344.0,49.0,13900.0,444.0,24.0,14433.0,59.0,14.0,2116.0,325.0,60.0,14716.0,75.0,28.0,2536.0,250.0,59.0,9112.0,27.0,4.0,1575.0,430.0,35.0,16839.0,,,,1606.0,103.0,59404.0,9.0,7.0,292.0,1317.0,84.0,16385.0,438.0,92.0,8806.0,,,,AL,2017
1121,Talladega County,81.0,-86.16,33.4,1969.14,0.0,0.0,0.0,3.0,0.0,0.0,3.0,0.0,0.0,3.0,0.0,726.0,91.0,31849.0,706.0,53.0,30458.0,219.0,22.0,8808.0,526.0,90.0,22497.0,169.0,48.0,4987.0,373.0,66.0,17319.0,,,,1674.0,42.0,32581.0,0.0,7.0,0.0,3174.0,143.0,99760.0,122.0,14.0,6018.0,1904.0,115.0,25357.0,616.0,147.0,14844.0,0.0,3.0,48.0,AL,2017
1125,Tuscaloosa County,204.0,-87.49,33.27,3500.5,2.36,0.33,176.0,26.0,8420.0,1148.0,24.0,100352.0,0.0,15.0,0.0,4701.0,366.0,225825.0,2155.0,183.0,104864.0,1849.0,61.0,80681.0,1723.0,254.0,99490.0,1740.0,208.0,59285.0,2514.0,357.0,117206.0,628.0,25.0,45894.0,5338.0,202.0,122785.0,776.0,36.0,15517.0,13123.0,449.0,651367.0,532.0,55.0,9865.0,10414.0,433.0,151987.0,3183.0,425.0,75168.0,3.0,3.0,86.0,AL,2017
1129,Washington County,17.0,-96.39,30.22,2819.88,0.0,0.0,191.0,29.0,7617.0,,,,225.0,7.0,20026.0,85.0,16.0,2239.0,230.0,10.0,11383.0,,,,51.0,13.0,1825.0,,,,26.0,9.0,1754.0,,,,38.0,3.0,2432.0,,,,276.0,13.0,8595.0,,,,57.0,7.0,582.0,85.0,32.0,1210.0,,,,AL,2017
1027,Clay County,13.0,-98.21,33.69,1568.96,0.0,0.0,55.0,13.0,1646.0,,,,0.0,3.0,0.0,52.0,14.0,1544.0,,,,19.0,6.0,667.0,95.0,11.0,4332.0,19.0,7.0,145.0,50.0,11.0,1177.0,,,,20.0,4.0,505.0,,,,554.0,20.0,16732.0,,,,123.0,11.0,1318.0,121.0,22.0,1972.0,,,,AL,2017
1031,Coffee County,51.0,-82.84,31.53,1762.93,1.92,0.05,39.0,6.0,1421.0,,,,40.0,3.0,2916.0,399.0,79.0,15059.0,444.0,28.0,20031.0,113.0,19.0,4653.0,484.0,79.0,23482.0,158.0,38.0,6093.0,745.0,66.0,52987.0,,,,392.0,32.0,7220.0,0.0,9.0,0.0,1909.0,103.0,70561.0,106.0,11.0,1323.0,1683.0,105.0,22105.0,725.0,139.0,15970.0,,,,AL,2017
1103,Morgan County,119.0,-90.19,39.71,1551.56,1.9,0.19,13.0,5.0,535.0,54.0,5.0,3142.0,44.0,5.0,4438.0,3294.0,217.0,163953.0,1963.0,162.0,110218.0,391.0,34.0,18736.0,1390.0,180.0,71073.0,383.0,92.0,17522.0,2214.0,192.0,142240.0,360.0,15.0,22037.0,1934.0,120.0,50301.0,170.0,13.0,4153.0,5743.0,351.0,223582.0,275.0,26.0,4244.0,4334.0,210.0,59338.0,1891.0,280.0,47053.0,,,,AL,2017
1109,Pike County,33.0,-90.85,39.61,1743.06,0.0,0.0,85.0,14.0,2889.0,,,,,,,625.0,43.0,29925.0,578.0,35.0,27947.0,182.0,8.0,8997.0,380.0,61.0,19565.0,92.0,32.0,2790.0,906.0,35.0,46959.0,,,,237.0,19.0,6188.0,76.0,5.0,1637.0,1095.0,54.0,43493.0,82.0,9.0,856.0,1616.0,81.0,18548.0,383.0,68.0,6515.0,,,,AL,2017
1021,Chilton County,44.0,-86.7,32.85,1814.87,0.0,0.0,110.0,14.0,4501.0,,,,0.0,7.0,0.0,572.0,87.0,23495.0,359.0,25.0,16348.0,62.0,13.0,3431.0,224.0,55.0,10056.0,59.0,25.0,1399.0,90.0,32.0,3209.0,,,,283.0,24.0,6089.0,,,,866.0,73.0,35197.0,,,,971.0,55.0,12995.0,564.0,116.0,11484.0,,,,AL,2017
1033,Colbert County,54.0,-87.79,34.65,1614.66,0.0,0.0,14.0,4.0,669.0,112.0,5.0,6425.0,,,,1197.0,99.0,59013.0,871.0,81.0,45200.0,115.0,12.0,6274.0,685.0,107.0,33049.0,111.0,36.0,4173.0,281.0,70.0,11262.0,26.0,6.0,1813.0,3230.0,46.0,73802.0,45.0,5.0,1180.0,2722.0,115.0,123416.0,147.0,16.0,2371.0,1968.0,107.0,23671.0,985.0,149.0,27731.0,,,,AL,2017
1045,Dale County,49.0,-85.62,31.39,1456.72,0.0,0.0,78.0,9.0,3384.0,,,,86.0,6.0,6800.0,602.0,54.0,26908.0,175.0,17.0,6195.0,26.0,10.0,1339.0,399.0,50.0,17703.0,173.0,33.0,6796.0,826.0,87.0,41681.0,0.0,4.0,0.0,186.0,34.0,7284.0,160.0,12.0,13724.0,1542.0,54.0,64713.0,19.0,5.0,373.0,1081.0,76.0,15208.0,458.0,91.0,8749.0,,,,AL,2017
1065,Hale County,15.0,-101.81,34.03,1699.68,0.0,0.0,77.0,9.0,3611.0,,,,,,,173.0,20.0,6669.0,29.0,5.0,1593.0,18.0,5.0,815.0,64.0,8.0,2974.0,7.0,4.0,183.0,24.0,8.0,462.0,,,,10.0,3.0,206.0,,,,437.0,17.0,12138.0,,,,150.0,15.0,1648.0,56.0,13.0,990.0,,,,AL,2017
1055,Etowah County,103.0,-86.02,34.04,1421.16,1.57,0.06,10.0,4.0,371.0,,,,148.0,7.0,13210.0,1071.0,126.0,46989.0,967.0,81.0,40436.0,289.0,32.0,13122.0,1034.0,155.0,52798.0,231.0,61.0,7955.0,660.0,126.0,27893.0,83.0,12.0,7066.0,1620.0,69.0,41304.0,222.0,8.0,3550.0,7467.0,301.0,316700.0,296.0,21.0,4330.0,3797.0,188.0,52591.0,1607.0,257.0,36988.0,,,,AL,2017
1049,DeKalb County,71.0,-88.77,41.89,2016.82,2.15,0.04,28.0,3.0,577.0,,,,,,,508.0,74.0,26171.0,689.0,53.0,27071.0,205.0,17.0,10992.0,411.0,87.0,17414.0,159.0,24.0,6265.0,322.0,72.0,11836.0,18.0,3.0,1505.0,780.0,43.0,21365.0,76.0,4.0,1145.0,2591.0,133.0,90814.0,87.0,12.0,1478.0,1576.0,93.0,25822.0,394.0,108.0,8648.0,,,,AL,2017
1053,Escambia County,38.0,-87.35,30.66,2467.61,0.0,0.0,189.0,19.0,8949.0,279.0,10.0,13807.0,80.0,5.0,5173.0,352.0,55.0,13106.0,168.0,29.0,9842.0,103.0,17.0,3883.0,413.0,66.0,19323.0,69.0,26.0,1795.0,174.0,42.0,6522.0,46.0,4.0,2467.0,147.0,19.0,5637.0,,,,1258.0,67.0,45132.0,97.0,5.0,1419.0,2155.0,62.0,42252.0,452.0,95.0,7697.0,,,,AL,2017
1075,Lamar County,14.0,-95.58,33.64,1568.94,0.0,0.0,65.0,12.0,2313.0,,,,,,,76.0,14.0,2815.0,26.0,7.0,1728.0,11.0,6.0,469.0,117.0,13.0,5051.0,4.0,4.0,129.0,54.0,16.0,2038.0,,,,23.0,4.0,924.0,,,,337.0,23.0,7860.0,11.0,3.0,295.0,143.0,16.0,1974.0,167.0,28.0,2309.0,,,,AL,2017
1111,Randolph County,23.0,-89.81,38.05,1512.59,0.0,0.0,97.0,12.0,2531.0,,,,,,,75.0,23.0,2839.0,35.0,7.0,1225.0,51.0,7.0,1922.0,164.0,25.0,7542.0,24.0,12.0,696.0,47.0,15.0,1292.0,,,,0.0,6.0,0.0,0.0,3.0,0.0,631.0,27.0,18355.0,,,,366.0,22.0,4420.0,177.0,48.0,3361.0,,,,AL,2017
1013,Butler County,20.0,-79.93,40.92,2014.55,0.0,0.0,226.0,22.0,7730.0,,,,,,,287.0,28.0,13444.0,77.0,15.0,3660.0,157.0,13.0,3444.0,151.0,38.0,5384.0,30.0,21.0,816.0,60.0,19.0,2332.0,,,,410.0,9.0,6714.0,,,,941.0,43.0,34447.0,94.0,5.0,1154.0,690.0,40.0,9235.0,140.0,40.0,2836.0,,,,AL,2017
1097,Mobile County,414.0,-88.19,30.65,3285.84,1.93,0.7,448.0,41.0,12679.0,173.0,14.0,20346.0,993.0,24.0,95319.0,11825.0,662.0,545641.0,7431.0,576.0,412050.0,3229.0,140.0,209684.0,5788.0,659.0,480225.0,2813.0,435.0,112322.0,9003.0,892.0,574754.0,3132.0,80.0,302506.0,13488.0,463.0,482225.0,3545.0,91.0,94417.0,20948.0,801.0,979251.0,1845.0,101.0,23819.0,15357.0,705.0,223758.0,8514.0,964.0,201341.0,8.0,4.0,79.0,AL,2017
1105,Perry County,10.0,-89.38,38.08,1875.06,0.0,0.0,13.0,4.0,634.0,,,,,,,57.0,12.0,2132.0,49.0,5.0,1469.0,,,,61.0,6.0,3009.0,33.0,7.0,1029.0,20.0,7.0,260.0,,,,0.0,3.0,0.0,306.0,3.0,11019.0,134.0,7.0,3993.0,,,,135.0,11.0,1589.0,86.0,16.0,1736.0,,,,AL,2017
1127,Walker County,65.0,-95.55,30.68,2085.15,0.0,0.0,108.0,21.0,4331.0,421.0,12.0,22633.0,0.0,11.0,0.0,430.0,71.0,15273.0,404.0,43.0,18670.0,123.0,14.0,5842.0,476.0,98.0,22180.0,190.0,44.0,6674.0,462.0,79.0,21517.0,,,,164.0,26.0,5587.0,,,,3203.0,170.0,123725.0,88.0,10.0,1531.0,1698.0,92.0,24408.0,829.0,173.0,21336.0,,,,AL,2017
1029,Cleburne County,15.0,-92.03,35.53,1453.5,0.0,0.0,22.0,7.0,780.0,,,,,,,560.0,16.0,28427.0,33.0,7.0,888.0,,,,51.0,11.0,2135.0,9.0,6.0,448.0,12.0,8.0,202.0,,,,84.0,6.0,1806.0,,,,58.0,12.0,1992.0,,,,138.0,9.0,1765.0,117.0,22.0,2961.0,,,,AL,2017
1035,Conecuh County,13.0,-86.94,31.4,2208.97,0.0,0.0,145.0,19.0,6490.0,,,,,,,59.0,8.0,2562.0,280.0,6.0,10785.0,15.0,5.0,536.0,52.0,9.0,2519.0,5.0,5.0,127.0,19.0,10.0,692.0,,,,17.0,7.0,429.0,,,,483.0,18.0,14524.0,7.0,3.0,145.0,340.0,15.0,3148.0,55.0,20.0,1145.0,,,,AL,2017
1063,Greene County,9.0,-90.39,39.36,1709.15,0.0,0.0,20.0,6.0,843.0,,,,,,,45.0,6.0,4533.0,,,,6.0,3.0,311.0,43.0,6.0,1395.0,,,,7.0,3.0,226.0,,,,,,,,,,276.0,11.0,8484.0,0.0,3.0,0.0,43.0,6.0,636.0,36.0,12.0,506.0,,,,AL,2017
1005,Barbour County,26.0,-85.4,31.86,2342.57,0.0,0.0,149.0,13.0,5209.0,83.0,4.0,4064.0,0.0,6.0,0.0,89.0,23.0,3036.0,121.0,14.0,3221.0,32.0,8.0,1499.0,148.0,41.0,6572.0,37.0,17.0,894.0,98.0,31.0,4112.0,,,,122.0,5.0,2593.0,65.0,5.0,1520.0,628.0,39.0,22941.0,22.0,5.0,412.0,636.0,56.0,7570.0,187.0,38.0,4488.0,,,,AL,2017
1007,Bibb County,23.0,-83.69,32.81,1622.33,0.0,0.0,74.0,9.0,2059.0,,,,19.0,3.0,1326.0,863.0,29.0,49723.0,90.0,14.0,4275.0,28.0,5.0,914.0,68.0,18.0,2491.0,19.0,9.0,281.0,60.0,14.0,2440.0,,,,92.0,12.0,3957.0,,,,712.0,26.0,24762.0,9.0,4.0,165.0,265.0,18.0,3948.0,147.0,37.0,3818.0,,,,AL,2017
1011,Bullock County,10.0,-85.71,32.1,1619.16,0.0,0.0,418.0,10.0,16478.0,,,,,,,0.0,5.0,0.0,19.0,6.0,769.0,,,,41.0,4.0,1410.0,6.0,3.0,85.0,26.0,5.0,1107.0,,,,3.0,3.0,75.0,,,,394.0,12.0,13736.0,9.0,3.0,121.0,77.0,9.0,1083.0,47.0,12.0,560.0,,,,AL,2017
1015,Calhoun County,116.0,-96.67,28.5,1585.64,0.0,0.0,61.0,12.0,2428.0,,,,191.0,10.0,17014.0,927.0,142.0,38904.0,2202.0,101.0,80072.0,517.0,32.0,25172.0,974.0,181.0,52363.0,306.0,75.0,10659.0,898.0,167.0,37759.0,196.0,13.0,9172.0,2701.0,85.0,82287.0,612.0,15.0,14800.0,6489.0,276.0,256521.0,167.0,21.0,3809.0,4867.0,224.0,67108.0,1635.0,309.0,35132.0,,,,AL,2017
1017,Chambers County,34.0,-94.54,29.72,1562.21,0.0,0.0,195.0,21.0,7694.0,,,,87.0,5.0,5615.0,182.0,41.0,5189.0,116.0,12.0,6662.0,83.0,7.0,3008.0,133.0,31.0,5132.0,45.0,17.0,1260.0,181.0,32.0,5356.0,,,,265.0,26.0,7689.0,,,,690.0,54.0,23258.0,,,,898.0,59.0,10826.0,340.0,97.0,6363.0,,,,AL,2017
1025,Clarke County,25.0,-93.78,41.02,3244.47,0.0,0.0,236.0,27.0,11276.0,29.0,3.0,1510.0,0.0,4.0,0.0,123.0,28.0,3886.0,160.0,18.0,6931.0,94.0,14.0,3370.0,337.0,66.0,15279.0,97.0,20.0,2193.0,94.0,29.0,2446.0,18.0,3.0,1280.0,114.0,13.0,4111.0,94.0,5.0,1746.0,916.0,58.0,29905.0,13.0,5.0,155.0,719.0,49.0,8938.0,286.0,72.0,5601.0,,,,AL,2017
1057,Fayette County,17.0,-96.96,29.84,1630.13,0.0,0.0,125.0,16.0,2970.0,89.0,7.0,4747.0,,,,74.0,17.0,2030.0,20.0,5.0,902.0,34.0,9.0,1434.0,80.0,15.0,4003.0,17.0,7.0,421.0,37.0,14.0,1403.0,,,,,,,,,,685.0,43.0,22421.0,,,,260.0,22.0,2929.0,120.0,33.0,2569.0,,,,AL,2017
1101,Montgomery County,227.0,-95.51,30.3,2071.56,2.1,0.98,49.0,13.0,2142.0,37.0,3.0,1179.0,767.0,14.0,56237.0,4148.0,305.0,217239.0,7030.0,321.0,373788.0,2080.0,120.0,101031.0,4284.0,392.0,314457.0,1579.0,259.0,68581.0,6200.0,608.0,460145.0,1250.0,50.0,80408.0,8490.0,291.0,214828.0,2449.0,71.0,70676.0,17633.0,668.0,872506.0,1250.0,58.0,23344.0,11408.0,520.0,189325.0,5234.0,657.0,170632.0,11.0,5.0,104.0,AL,2017
1095,Marshall County,95.0,-89.3,41.03,1614.03,0.0,0.0,,,,,,,0.0,3.0,0.0,1065.0,122.0,44378.0,1406.0,90.0,59751.0,440.0,26.0,20560.0,841.0,154.0,42858.0,578.0,65.0,11611.0,661.0,126.0,28082.0,393.0,10.0,48690.0,1129.0,53.0,29804.0,48.0,10.0,670.0,4104.0,197.0,159931.0,162.0,28.0,3258.0,3236.0,185.0,44843.0,990.0,166.0,17960.0,3.0,3.0,79.0,AL,2017
1009,Blount County,58.0,-86.57,33.95,1685.1,0.0,0.0,7.0,3.0,224.0,0.0,3.0,0.0,,,,514.0,90.0,22264.0,404.0,42.0,16142.0,59.0,11.0,2951.0,227.0,45.0,10428.0,20.0,9.0,1909.0,225.0,42.0,9664.0,,,,221.0,26.0,7928.0,10.0,3.0,54.0,967.0,62.0,35055.0,85.0,11.0,1458.0,691.0,49.0,9576.0,693.0,99.0,12717.0,,,,AL,2017
1067,Henry County,17.0,-90.12,41.34,1472.03,0.0,0.0,255.0,17.0,10917.0,,,,0.0,4.0,0.0,108.0,22.0,4053.0,138.0,13.0,6500.0,0.0,3.0,0.0,100.0,17.0,4480.0,5.0,5.0,88.0,140.0,25.0,7293.0,37.0,6.0,12544.0,68.0,12.0,3035.0,,,,161.0,20.0,5002.0,0.0,3.0,0.0,185.0,21.0,2336.0,183.0,38.0,3980.0,,,,AL,2017
1089,Madison County,353.0,-95.95,30.96,2105.0,1.88,0.57,32.0,9.0,884.0,,,,,,,5502.0,530.0,255728.0,5224.0,367.0,338772.0,4645.0,152.0,271180.0,3778.0,488.0,249052.0,1756.0,415.0,75425.0,38435.0,1469.0,3518845.0,1514.0,40.0,110159.0,8334.0,421.0,273742.0,3288.0,106.0,122921.0,25481.0,1029.0,1270476.0,1552.0,114.0,27207.0,17357.0,786.0,258560.0,8005.0,793.0,212463.0,8.0,6.0,124.0,AL,2017
1001,Autauga County,55.0,-86.63,32.52,1565.37,0.0,0.0,93.0,10.0,4865.0,60.0,3.0,3280.0,176.0,8.0,18288.0,453.0,76.0,19229.0,251.0,28.0,14964.0,108.0,9.0,3834.0,365.0,73.0,18291.0,110.0,43.0,4112.0,275.0,52.0,11540.0,,,,189.0,27.0,5152.0,157.0,6.0,3116.0,1575.0,95.0,52618.0,288.0,10.0,3220.0,2437.0,100.0,38890.0,796.0,116.0,17293.0,5.0,3.0,95.0,AL,2017
1123,Tallapoosa County,41.0,-85.8,32.86,1984.92,0.0,0.0,62.0,15.0,3078.0,,,,0.0,5.0,0.0,446.0,73.0,14679.0,117.0,18.0,4838.0,155.0,12.0,5390.0,262.0,54.0,12003.0,83.0,29.0,4222.0,219.0,60.0,9887.0,77.0,5.0,5776.0,688.0,31.0,18566.0,0.0,4.0,0.0,2188.0,79.0,82189.0,198.0,9.0,7175.0,1033.0,69.0,14350.0,465.0,106.0,11694.0,,,,AL,2017
1061,Geneva County,27.0,-85.8,31.09,1499.44,0.0,0.0,,,,,,,0.0,3.0,0.0,157.0,47.0,5126.0,430.0,19.0,28977.0,0.0,6.0,0.0,140.0,27.0,5554.0,19.0,8.0,406.0,96.0,29.0,2970.0,,,,97.0,15.0,2131.0,,,,575.0,32.0,17433.0,,,,276.0,31.0,3480.0,133.0,44.0,2663.0,,,,AL,2017
1131,Wilcox County,11.0,-83.44,31.96,2349.68,0.0,0.0,97.0,17.0,4206.0,,,,,,,113.0,10.0,4058.0,28.0,5.0,1698.0,52.0,7.0,3104.0,83.0,10.0,3091.0,0.0,7.0,0.0,16.0,10.0,490.0,,,,,,,,,,276.0,17.0,8512.0,,,,125.0,14.0,1386.0,65.0,15.0,1029.0,,,,AL,2017
1037,Coosa County,11.0,-86.23,32.92,1726.09,0.0,0.0,81.0,6.0,3084.0,,,,,,,30.0,10.0,1213.0,22.0,4.0,1427.0,,,,14.0,5.0,465.0,0.0,4.0,0.0,22.0,7.0,1275.0,,,,3.0,3.0,79.0,,,,0.0,3.0,0.0,,,,0.0,4.0,0.0,39.0,18.0,714.0,,,,AL,2017
5099,Nevada County,9.0,-120.81,39.35,1607.52,0.0,0.0,83.0,9.0,3385.0,,,,,,,14.0,6.0,437.0,7.0,4.0,238.0,,,,59.0,8.0,2648.0,16.0,4.0,202.0,27.0,6.0,384.0,,,,,,,,,,393.0,15.0,10123.0,,,,86.0,9.0,1115.0,66.0,19.0,1095.0,,,,AR,2017
5021,Clay County,15.0,-98.21,33.69,1662.23,0.0,0.0,36.0,7.0,2319.0,,,,0.0,4.0,0.0,120.0,30.0,4698.0,266.0,15.0,8278.0,81.0,7.0,2478.0,86.0,15.0,3699.0,15.0,6.0,309.0,48.0,14.0,1261.0,,,,48.0,8.0,2347.0,,,,674.0,28.0,20049.0,,,,224.0,22.0,2482.0,125.0,45.0,2598.0,,,,AR,2017
5037,Cross County,17.0,-90.78,35.3,1611.61,1.62,0.03,33.0,9.0,1840.0,,,,,,,82.0,22.0,2499.0,278.0,20.0,13189.0,45.0,6.0,1364.0,199.0,26.0,8930.0,80.0,19.0,1810.0,77.0,25.0,3015.0,112.0,6.0,5157.0,81.0,9.0,3670.0,,,,966.0,44.0,27091.0,24.0,5.0,511.0,336.0,23.0,4260.0,187.0,45.0,4099.0,,,,AR,2017
5039,Dallas County,8.0,-96.78,32.76,1730.03,0.0,0.0,121.0,23.0,4694.0,,,,,,,74.0,12.0,2227.0,20.0,5.0,594.0,21.0,5.0,649.0,65.0,10.0,3837.0,11.0,5.0,352.0,35.0,7.0,915.0,,,,,,,,,,698.0,18.0,15644.0,,,,121.0,10.0,1580.0,76.0,26.0,1514.0,,,,AR,2017
5043,Drew County,19.0,-91.72,33.57,2164.5,0.0,0.0,335.0,39.0,13131.0,,,,32.0,7.0,2027.0,134.0,26.0,6858.0,136.0,11.0,9321.0,67.0,11.0,2900.0,157.0,27.0,8571.0,59.0,19.0,1856.0,94.0,18.0,3467.0,,,,177.0,9.0,7610.0,,,,1215.0,43.0,33486.0,,,,612.0,36.0,8481.0,171.0,35.0,4340.0,,,,AR,2017
5027,Columbia County,24.0,-76.42,41.04,1986.17,0.0,0.0,57.0,10.0,2763.0,190.0,19.0,14980.0,38.0,6.0,2627.0,171.0,34.0,5897.0,316.0,24.0,16686.0,58.0,9.0,1721.0,250.0,39.0,14481.0,111.0,26.0,5248.0,291.0,32.0,12943.0,11.0,3.0,828.0,151.0,15.0,3713.0,0.0,4.0,0.0,1259.0,68.0,32942.0,33.0,5.0,659.0,719.0,41.0,10641.0,271.0,62.0,5733.0,,,,AR,2017
5121,Randolph County,18.0,-89.81,38.05,1699.1,0.0,0.0,,,,,,,,,,118.0,30.0,3681.0,255.0,10.0,10633.0,37.0,8.0,1488.0,135.0,19.0,5363.0,41.0,15.0,869.0,63.0,22.0,2609.0,,,,0.0,6.0,0.0,,,,895.0,43.0,25421.0,9.0,4.0,238.0,391.0,24.0,4725.0,72.0,25.0,1370.0,,,,AR,2017
5125,Saline County,116.0,-88.53,37.75,1891.65,0.0,0.0,31.0,7.0,1274.0,29.0,4.0,1323.0,0.0,3.0,0.0,2144.0,283.0,95206.0,558.0,88.0,25237.0,200.0,21.0,9446.0,519.0,119.0,25762.0,291.0,87.0,9811.0,798.0,167.0,37519.0,237.0,8.0,6744.0,1020.0,94.0,30223.0,138.0,18.0,1852.0,4383.0,245.0,152749.0,92.0,22.0,1232.0,3075.0,159.0,47635.0,1812.0,208.0,45702.0,,,,AR,2017
5141,Van Buren County,17.0,-91.97,40.75,1875.75,0.0,0.0,,,,0.0,5.0,0.0,65.0,4.0,3862.0,210.0,36.0,6325.0,84.0,14.0,3200.0,35.0,7.0,1265.0,91.0,24.0,4787.0,6.0,6.0,286.0,56.0,17.0,2425.0,16.0,3.0,585.0,58.0,11.0,1568.0,,,,774.0,30.0,24808.0,22.0,5.0,357.0,284.0,20.0,4472.0,201.0,35.0,4326.0,,,,AR,2017
5009,Boone County,37.0,-88.82,42.32,1559.28,0.0,0.0,,,,,,,71.0,10.0,5175.0,511.0,58.0,21073.0,372.0,37.0,13714.0,273.0,15.0,11685.0,409.0,64.0,20992.0,97.0,41.0,2610.0,235.0,52.0,6949.0,0.0,20.0,0.0,919.0,30.0,28185.0,7.0,3.0,78.0,2584.0,128.0,93455.0,22.0,7.0,589.0,1146.0,72.0,17099.0,428.0,91.0,10451.0,,,,AR,2017
5065,Izard County,14.0,-91.89,36.08,1512.48,0.0,0.0,,,,0.0,4.0,0.0,,,,92.0,19.0,3197.0,32.0,9.0,873.0,7.0,4.0,401.0,95.0,21.0,4269.0,35.0,4.0,551.0,25.0,6.0,742.0,,,,15.0,6.0,488.0,,,,657.0,35.0,15786.0,46.0,6.0,1058.0,121.0,14.0,1441.0,75.0,26.0,1294.0,,,,AR,2017
5063,Independence County,37.0,-91.55,35.72,1998.48,0.0,0.0,18.0,6.0,497.0,82.0,6.0,5415.0,0.0,4.0,0.0,567.0,63.0,26818.0,222.0,29.0,9202.0,136.0,14.0,4620.0,413.0,50.0,19060.0,91.0,24.0,3428.0,199.0,58.0,7787.0,,,,581.0,27.0,14344.0,0.0,6.0,0.0,3749.0,101.0,163311.0,39.0,11.0,733.0,1179.0,64.0,14239.0,491.0,94.0,9809.0,,,,AR,2017
5079,Lincoln County,14.0,-81.21,35.49,1481.87,0.0,0.0,32.0,6.0,1033.0,,,,,,,87.0,19.0,3342.0,41.0,5.0,2551.0,,,,51.0,8.0,1956.0,7.0,8.0,353.0,25.0,10.0,807.0,,,,21.0,9.0,838.0,,,,303.0,17.0,10403.0,,,,170.0,14.0,1829.0,64.0,22.0,1583.0,,,,AR,2017
5083,Logan County,22.0,-89.38,40.11,1894.7,0.0,0.0,,,,80.0,9.0,3736.0,,,,217.0,41.0,8125.0,24.0,7.0,547.0,40.0,8.0,1637.0,248.0,29.0,14005.0,20.0,14.0,384.0,51.0,28.0,1842.0,,,,33.0,7.0,871.0,,,,657.0,43.0,23470.0,15.0,5.0,397.0,345.0,30.0,3704.0,255.0,53.0,5142.0,,,,AR,2017
5053,Grant County,18.0,-96.03,45.94,1639.28,0.0,0.0,57.0,12.0,2826.0,,,,17.0,5.0,714.0,178.0,27.0,7239.0,99.0,12.0,5177.0,15.0,3.0,925.0,78.0,15.0,3647.0,0.0,3.0,0.0,106.0,17.0,5836.0,,,,231.0,7.0,4275.0,,,,243.0,26.0,6541.0,,,,343.0,17.0,3877.0,121.0,36.0,2575.0,,,,AR,2017
5035,Crittenden County,49.0,-88.09,37.36,1648.15,2.45,0.07,8.0,5.0,599.0,,,,38.0,4.0,3178.0,363.0,35.0,14412.0,1028.0,54.0,48317.0,58.0,6.0,2682.0,214.0,40.0,12036.0,210.0,42.0,9713.0,243.0,49.0,7878.0,,,,427.0,26.0,17537.0,154.0,6.0,6917.0,1765.0,126.0,54240.0,615.0,15.0,13417.0,1773.0,95.0,25223.0,586.0,85.0,13431.0,,,,AR,2017
5047,Franklin County,18.0,-95.22,33.2,1605.02,0.0,0.0,,,,65.0,4.0,3353.0,181.0,6.0,11882.0,111.0,29.0,3380.0,35.0,8.0,945.0,23.0,7.0,774.0,307.0,23.0,12613.0,10.0,4.0,416.0,77.0,19.0,2305.0,,,,47.0,8.0,1232.0,,,,580.0,35.0,18250.0,,,,312.0,27.0,3811.0,89.0,30.0,2105.0,,,,AR,2017
5045,Faulkner County,121.0,-92.32,35.15,1719.64,1.79,0.29,39.0,4.0,603.0,657.0,26.0,49804.0,129.0,12.0,12482.0,2820.0,280.0,140613.0,857.0,103.0,40590.0,2133.0,36.0,222765.0,1100.0,176.0,58847.0,508.0,139.0,17112.0,857.0,241.0,38112.0,296.0,21.0,27577.0,1534.0,116.0,48620.0,1587.0,29.0,34090.0,5677.0,319.0,211486.0,260.0,28.0,5125.0,4859.0,224.0,71641.0,1898.0,259.0,43181.0,14.0,3.0,113.0,AR,2017
5109,Pike County,11.0,-90.85,39.61,1590.59,0.0,0.0,96.0,14.0,3338.0,,,,0.0,3.0,0.0,45.0,13.0,1952.0,137.0,7.0,3178.0,20.0,3.0,1130.0,97.0,12.0,3671.0,0.0,6.0,0.0,52.0,10.0,1516.0,,,,12.0,4.0,219.0,0.0,4.0,0.0,287.0,18.0,7600.0,0.0,3.0,0.0,190.0,20.0,2681.0,94.0,16.0,1490.0,,,,AR,2017
5069,Jefferson County,71.0,-94.17,29.83,2367.01,1.94,0.15,24.0,7.0,1866.0,,,,231.0,12.0,23655.0,397.0,65.0,14974.0,491.0,63.0,24048.0,189.0,16.0,6164.0,782.0,81.0,40607.0,221.0,57.0,6537.0,312.0,67.0,11374.0,58.0,7.0,5165.0,1631.0,54.0,44226.0,546.0,12.0,10873.0,4016.0,203.0,173675.0,97.0,8.0,1861.0,1917.0,124.0,23961.0,765.0,166.0,16581.0,0.0,3.0,0.0,AR,2017
5089,Marion County,16.0,-94.34,32.79,1658.26,0.0,0.0,,,,,,,,,,34.0,24.0,927.0,21.0,7.0,637.0,0.0,3.0,0.0,116.0,16.0,5253.0,12.0,10.0,292.0,65.0,15.0,1651.0,,,,0.0,4.0,0.0,,,,278.0,13.0,5462.0,35.0,5.0,787.0,196.0,27.0,2659.0,58.0,25.0,1003.0,,,,AR,2017
5097,Montgomery County,9.0,-95.51,30.3,2072.66,0.0,0.0,19.0,4.0,416.0,37.0,3.0,1650.0,,,,64.0,24.0,1888.0,46.0,6.0,1664.0,,,,29.0,4.0,1007.0,8.0,6.0,137.0,7.0,6.0,256.0,,,,27.0,7.0,869.0,,,,66.0,11.0,2844.0,,,,241.0,14.0,8108.0,54.0,13.0,1098.0,,,,AR,2017
5127,Scott County,11.0,-90.48,39.63,2325.77,0.0,0.0,116.0,10.0,3330.0,7.0,3.0,363.0,,,,48.0,9.0,1726.0,59.0,7.0,3237.0,,,,48.0,9.0,1435.0,16.0,5.0,460.0,13.0,9.0,304.0,,,,,,,,,,359.0,22.0,11595.0,,,,137.0,13.0,2412.0,59.0,22.0,1191.0,,,,AR,2017
5129,Searcy County,8.0,-92.71,35.9,1731.58,0.0,0.0,,,,,,,11.0,4.0,663.0,4.0,6.0,255.0,,,,,,,34.0,7.0,1241.0,21.0,7.0,506.0,14.0,6.0,424.0,,,,0.0,3.0,0.0,,,,284.0,14.0,5599.0,,,,103.0,10.0,1405.0,26.0,6.0,417.0,,,,AR,2017
5131,Sebastian County,127.0,-94.27,35.18,1417.3,2.17,0.78,,,,448.0,37.0,23548.0,345.0,8.0,25040.0,2278.0,232.0,99194.0,3049.0,205.0,164928.0,988.0,54.0,62129.0,1613.0,226.0,86761.0,1167.0,163.0,47117.0,1551.0,310.0,74523.0,5585.0,79.0,204832.0,3375.0,163.0,91968.0,421.0,30.0,15442.0,11453.0,431.0,563738.0,346.0,36.0,7362.0,6278.0,300.0,94413.0,2045.0,301.0,44972.0,,,,AR,2017
5033,Crawford County,62.0,-80.14,41.7,1561.94,0.0,0.0,0.0,3.0,0.0,23.0,6.0,1472.0,27.0,4.0,1312.0,963.0,130.0,43932.0,939.0,75.0,46409.0,165.0,20.0,6824.0,358.0,68.0,13776.0,161.0,44.0,5555.0,295.0,87.0,11482.0,,,,286.0,47.0,9172.0,0.0,8.0,0.0,1573.0,109.0,63450.0,48.0,8.0,653.0,1558.0,88.0,21419.0,532.0,109.0,13052.0,,,,AR,2017
5007,Benton County,252.0,-94.05,45.72,2289.67,1.8,0.49,114.0,12.0,3703.0,58.0,4.0,2541.0,291.0,13.0,24358.0,5033.0,590.0,241295.0,10381.0,378.0,467495.0,1922.0,122.0,157036.0,2995.0,349.0,187385.0,1154.0,313.0,46640.0,7606.0,721.0,504354.0,0.0,743.0,0.0,3750.0,331.0,134921.0,2226.0,80.0,45511.0,9552.0,574.0,439814.0,1247.0,77.0,29318.0,11006.0,513.0,188452.0,3742.0,471.0,108564.0,6.0,4.0,62.0,AR,2017
5017,Chicot County,11.0,-91.3,33.25,1789.57,0.0,0.0,41.0,7.0,2259.0,,,,4.0,3.0,222.0,127.0,14.0,6344.0,125.0,11.0,6624.0,12.0,6.0,414.0,93.0,16.0,5090.0,22.0,9.0,292.0,34.0,13.0,1717.0,,,,0.0,3.0,0.0,,,,592.0,33.0,19717.0,67.0,6.0,1344.0,111.0,12.0,1547.0,82.0,24.0,1805.0,,,,AR,2017
5059,Hot Spring County,33.0,-92.9,34.3,1611.07,1.59,0.04,52.0,17.0,1503.0,,,,0.0,7.0,0.0,201.0,49.0,5660.0,145.0,15.0,6075.0,52.0,8.0,2273.0,208.0,35.0,9309.0,44.0,12.0,1127.0,76.0,30.0,1947.0,,,,154.0,17.0,4652.0,11.0,6.0,274.0,1189.0,54.0,39999.0,92.0,8.0,738.0,599.0,42.0,7336.0,213.0,55.0,4014.0,,,,AR,2017
5071,Johnson County,26.0,-97.36,32.38,1768.38,0.0,0.0,0.0,3.0,0.0,,,,,,,117.0,31.0,3639.0,33.0,9.0,973.0,36.0,8.0,954.0,123.0,27.0,5051.0,46.0,17.0,1080.0,75.0,23.0,2758.0,,,,171.0,22.0,4159.0,,,,1001.0,38.0,36074.0,10.0,3.0,171.0,625.0,40.0,7974.0,214.0,49.0,5260.0,,,,AR,2017
5077,Lee County,10.0,-96.96,30.3,1604.17,0.0,0.0,19.0,5.0,1180.0,,,,,,,11.0,6.0,223.0,127.0,11.0,6749.0,,,,43.0,5.0,1646.0,15.0,8.0,340.0,25.0,8.0,1007.0,,,,,,,,,,311.0,18.0,8833.0,11.0,3.0,222.0,46.0,4.0,576.0,36.0,17.0,675.0,,,,AR,2017
5087,Madison County,16.0,-95.95,30.96,2167.93,0.0,0.0,14.0,7.0,423.0,,,,,,,93.0,25.0,3313.0,0.0,4.0,0.0,45.0,5.0,2861.0,91.0,14.0,3552.0,14.0,10.0,261.0,39.0,10.0,1221.0,,,,64.0,11.0,2618.0,,,,230.0,15.0,7094.0,58.0,4.0,1212.0,198.0,17.0,2287.0,74.0,27.0,2247.0,,,,AR,2017
5041,Desha County,12.0,-91.31,33.77,2122.05,0.0,0.0,14.0,10.0,734.0,,,,23.0,5.0,1706.0,74.0,13.0,2486.0,218.0,20.0,11054.0,26.0,7.0,1098.0,131.0,21.0,5923.0,64.0,9.0,1226.0,41.0,17.0,1677.0,,,,55.0,9.0,953.0,0.0,3.0,0.0,521.0,25.0,13333.0,19.0,6.0,444.0,306.0,28.0,3885.0,124.0,32.0,1964.0,,,,AR,2017
5049,Fulton County,12.0,-90.18,40.47,1606.56,0.0,0.0,,,,,,,,,,11.0,7.0,474.0,46.0,7.0,1178.0,34.0,4.0,709.0,66.0,10.0,2690.0,7.0,4.0,72.0,37.0,11.0,1040.0,,,,,,,,,,600.0,32.0,16969.0,,,,228.0,15.0,2650.0,42.0,16.0,632.0,,,,AR,2017
5061,Howard County,13.0,-101.43,32.3,1542.68,0.0,0.0,337.0,13.0,21016.0,,,,31.0,4.0,2663.0,159.0,23.0,5827.0,86.0,13.0,3539.0,27.0,4.0,717.0,120.0,27.0,5632.0,16.0,6.0,372.0,29.0,9.0,1138.0,,,,,,,,,,905.0,34.0,23567.0,,,,302.0,17.0,4106.0,165.0,40.0,4255.0,,,,AR,2017
5051,Garland County,98.0,-93.18,34.55,1902.88,1.99,0.09,35.0,12.0,1269.0,35.0,7.0,1486.0,0.0,4.0,0.0,1645.0,294.0,62748.0,785.0,91.0,48555.0,512.0,37.0,21189.0,1084.0,199.0,56933.0,500.0,131.0,17506.0,1357.0,218.0,59498.0,211.0,17.0,14888.0,2407.0,111.0,45490.0,107.0,24.0,2871.0,8406.0,345.0,371272.0,1602.0,54.0,33262.0,5453.0,304.0,87187.0,1444.0,279.0,32956.0,23.0,4.0,147.0,AR,2017
5093,Mississippi County,44.0,-89.33,36.84,2381.64,2.37,0.04,98.0,16.0,5487.0,,,,106.0,10.0,7354.0,627.0,34.0,36933.0,516.0,53.0,29503.0,0.0,12.0,0.0,238.0,40.0,9351.0,165.0,35.0,4655.0,106.0,30.0,3352.0,0.0,3.0,0.0,427.0,28.0,10315.0,0.0,5.0,0.0,1466.0,109.0,56193.0,51.0,11.0,880.0,1116.0,80.0,15347.0,342.0,83.0,7040.0,,,,AR,2017
5115,Pope County,63.0,-88.59,37.39,2151.53,1.95,0.08,691.0,16.0,19098.0,85.0,5.0,5527.0,0.0,12.0,0.0,902.0,133.0,45873.0,657.0,72.0,29455.0,217.0,22.0,7441.0,967.0,97.0,38415.0,238.0,80.0,7297.0,747.0,172.0,42669.0,92.0,5.0,6181.0,1472.0,62.0,41385.0,79.0,17.0,1738.0,3435.0,189.0,121631.0,60.0,16.0,1023.0,2957.0,139.0,40124.0,990.0,164.0,24541.0,0.0,4.0,0.0,AR,2017
5117,Prairie County,8.0,-91.58,34.81,1749.71,0.0,0.0,29.0,5.0,1556.0,,,,,,,67.0,11.0,2367.0,126.0,9.0,6184.0,0.0,3.0,0.0,29.0,7.0,1389.0,17.0,8.0,539.0,32.0,7.0,788.0,,,,0.0,5.0,0.0,,,,185.0,9.0,3931.0,,,,71.0,12.0,791.0,57.0,21.0,1063.0,,,,AR,2017
5139,Union County,40.0,-89.25,37.46,2733.81,0.0,0.0,111.0,20.0,5236.0,300.0,55.0,16820.0,124.0,7.0,13535.0,1792.0,75.0,111837.0,353.0,52.0,17597.0,130.0,12.0,4665.0,426.0,63.0,22309.0,206.0,35.0,9244.0,462.0,73.0,24872.0,822.0,8.0,120872.0,789.0,39.0,44340.0,86.0,8.0,1667.0,2285.0,122.0,85759.0,147.0,11.0,5022.0,1094.0,78.0,15758.0,774.0,154.0,17427.0,,,,AR,2017
5147,Woodruff County,7.0,-91.22,35.17,1538.7,0.0,0.0,11.0,3.0,561.0,,,,,,,16.0,8.0,548.0,153.0,14.0,7521.0,0.0,3.0,0.0,60.0,8.0,2318.0,10.0,3.0,56.0,8.0,7.0,237.0,,,,,,,,,,144.0,13.0,5130.0,,,,75.0,9.0,907.0,42.0,14.0,626.0,,,,AR,2017
5023,Cleburne County,25.0,-92.03,35.53,1533.04,0.0,0.0,11.0,4.0,622.0,37.0,7.0,1041.0,60.0,4.0,3396.0,293.0,63.0,11268.0,141.0,25.0,6517.0,36.0,9.0,1321.0,220.0,49.0,9276.0,49.0,31.0,1426.0,109.0,36.0,3032.0,,,,124.0,23.0,4444.0,,,,925.0,51.0,25908.0,74.0,9.0,2045.0,716.0,63.0,10222.0,265.0,65.0,5903.0,,,,AR,2017
5025,Cleveland County,8.0,-81.55,35.33,1550.8,0.0,0.0,56.0,11.0,3871.0,,,,6.0,3.0,197.0,41.0,7.0,853.0,,,,,,,,,,,,,,,,,,,,,,,,,141.0,5.0,2410.0,,,,,,,36.0,12.0,1040.0,,,,AR,2017
5067,Jackson County,17.0,-96.56,28.92,1660.98,0.0,0.0,70.0,9.0,2887.0,,,,0.0,3.0,0.0,114.0,18.0,4742.0,192.0,16.0,9328.0,17.0,5.0,581.0,79.0,18.0,3899.0,46.0,12.0,901.0,98.0,23.0,3633.0,,,,17.0,4.0,370.0,,,,831.0,43.0,26669.0,,,,337.0,26.0,5157.0,157.0,34.0,2513.0,,,,AR,2017
5057,Hempstead County,22.0,-93.69,33.69,1919.69,0.0,0.0,29.0,7.0,1205.0,,,,0.0,4.0,0.0,126.0,21.0,4616.0,133.0,13.0,4206.0,39.0,9.0,1744.0,126.0,23.0,6511.0,56.0,18.0,1618.0,150.0,15.0,5047.0,,,,131.0,13.0,2568.0,0.0,3.0,0.0,1100.0,46.0,27181.0,,,,549.0,36.0,7176.0,263.0,51.0,5680.0,,,,AR,2017
5135,Sharp County,17.0,-91.49,36.13,1570.54,0.0,0.0,,,,,,,,,,126.0,27.0,4622.0,44.0,6.0,492.0,38.0,8.0,1384.0,163.0,22.0,6949.0,15.0,7.0,270.0,36.0,12.0,592.0,0.0,3.0,0.0,40.0,10.0,1560.0,,,,691.0,52.0,18047.0,,,,287.0,29.0,3937.0,233.0,48.0,4849.0,,,,AR,2017
5137,Stone County,12.0,-93.46,36.74,1578.6,0.0,0.0,,,,,,,20.0,4.0,1352.0,39.0,16.0,1168.0,56.0,5.0,1397.0,,,,106.0,20.0,3782.0,12.0,6.0,152.0,35.0,10.0,720.0,,,,,,,,,,599.0,35.0,18154.0,,,,442.0,27.0,5313.0,95.0,28.0,2355.0,,,,AR,2017
5143,Washington County,224.0,-96.39,30.22,2466.79,2.57,0.69,118.0,5.0,4790.0,0.0,6.0,0.0,386.0,12.0,30676.0,5000.0,498.0,252576.0,3259.0,274.0,184425.0,1312.0,94.0,59221.0,2370.0,319.0,136231.0,1264.0,303.0,48083.0,3866.0,657.0,215097.0,3100.0,42.0,343407.0,4842.0,270.0,143546.0,514.0,56.0,12857.0,14635.0,605.0,753675.0,944.0,75.0,18370.0,11476.0,571.0,175631.0,3920.0,483.0,102605.0,8.0,4.0,93.0,AR,2017
5005,Baxter County,41.0,-92.34,36.28,1519.81,0.0,0.0,0.0,3.0,0.0,,,,,,,548.0,95.0,18437.0,264.0,24.0,11641.0,149.0,16.0,6374.0,545.0,73.0,39259.0,269.0,44.0,4964.0,445.0,73.0,15169.0,,,,233.0,37.0,6583.0,31.0,5.0,349.0,3981.0,177.0,172794.0,133.0,22.0,2644.0,1545.0,105.0,21576.0,502.0,111.0,11282.0,,,,AR,2017
5003,Ashley County,21.0,-91.73,33.17,2436.02,0.0,0.0,271.0,22.0,11135.0,,,,,,,468.0,28.0,20491.0,155.0,17.0,7141.0,36.0,5.0,1093.0,155.0,24.0,5525.0,18.0,8.0,665.0,63.0,25.0,1994.0,46.0,3.0,3932.0,55.0,10.0,1193.0,,,,904.0,39.0,31863.0,6.0,4.0,73.0,382.0,28.0,5150.0,247.0,47.0,4956.0,,,,AR,2017
5031,Craighead County,104.0,-90.64,35.83,1845.79,2.34,0.21,91.0,21.0,4227.0,,,,126.0,3.0,8888.0,1963.0,209.0,84340.0,1605.0,145.0,75280.0,633.0,38.0,30744.0,1193.0,153.0,73149.0,494.0,121.0,19722.0,1172.0,201.0,56344.0,897.0,26.0,48315.0,2266.0,109.0,54416.0,230.0,24.0,5512.0,10030.0,354.0,497418.0,364.0,24.0,5226.0,5129.0,241.0,74415.0,1433.0,200.0,33780.0,,,,AR,2017
5055,Greene County,44.0,-90.39,39.36,1500.04,1.86,0.03,60.0,6.0,2669.0,,,,0.0,3.0,0.0,343.0,63.0,14918.0,1816.0,42.0,84237.0,89.0,9.0,2194.0,404.0,47.0,20940.0,73.0,35.0,2026.0,360.0,51.0,12981.0,87.0,4.0,3186.0,398.0,24.0,6479.0,115.0,7.0,2730.0,1904.0,103.0,69613.0,48.0,7.0,855.0,1229.0,70.0,16582.0,332.0,82.0,7500.0,,,,AR,2017
5073,Lafayette County,7.0,-83.22,30.0,1411.69,0.0,0.0,22.0,7.0,516.0,28.0,6.0,1441.0,0.0,3.0,0.0,68.0,7.0,4558.0,,,,,,,50.0,11.0,1492.0,7.0,3.0,134.0,21.0,5.0,324.0,,,,,,,28.0,4.0,392.0,133.0,7.0,2778.0,,,,46.0,6.0,727.0,47.0,10.0,1031.0,,,,AR,2017
5105,Perry County,10.0,-89.38,38.08,1451.92,0.0,0.0,,,,,,,,,,59.0,11.0,2065.0,9.0,4.0,169.0,,,,19.0,5.0,959.0,8.0,3.0,139.0,12.0,8.0,961.0,,,,32.0,5.0,1190.0,,,,195.0,13.0,4354.0,,,,72.0,7.0,933.0,28.0,13.0,481.0,,,,AR,2017
5107,Phillips County,20.0,-102.37,40.59,1884.05,1.76,0.09,16.0,5.0,787.0,,,,39.0,4.0,2062.0,101.0,23.0,2972.0,352.0,29.0,16304.0,26.0,7.0,879.0,106.0,22.0,5526.0,50.0,17.0,1846.0,85.0,23.0,2779.0,,,,24.0,8.0,565.0,331.0,4.0,10993.0,1229.0,57.0,36440.0,17.0,7.0,341.0,264.0,26.0,3628.0,146.0,46.0,2788.0,,,,AR,2017
5111,Poinsett County,24.0,-90.67,35.57,1977.93,0.0,0.0,42.0,11.0,2685.0,,,,42.0,4.0,2283.0,79.0,18.0,2718.0,625.0,25.0,21946.0,16.0,4.0,587.0,122.0,23.0,4255.0,32.0,8.0,776.0,47.0,14.0,1272.0,0.0,3.0,0.0,5.0,4.0,91.0,,,,753.0,43.0,21278.0,,,,429.0,38.0,5547.0,132.0,42.0,2997.0,,,,AR,2017
5133,Sevier County,17.0,-94.24,33.99,1505.47,0.0,0.0,90.0,7.0,5828.0,,,,26.0,5.0,2057.0,343.0,18.0,18170.0,56.0,9.0,3269.0,23.0,3.0,1039.0,142.0,15.0,6510.0,25.0,7.0,732.0,59.0,12.0,1359.0,,,,131.0,7.0,3778.0,,,,569.0,39.0,18460.0,,,,259.0,20.0,3083.0,133.0,39.0,3273.0,,,,AR,2017
5149,Yell County,22.0,-93.43,34.99,2457.69,1.54,0.03,80.0,11.0,2939.0,,,,,,,197.0,31.0,7817.0,129.0,10.0,3804.0,,,,157.0,19.0,4779.0,18.0,8.0,337.0,87.0,21.0,2979.0,,,,325.0,14.0,13905.0,,,,1027.0,44.0,32092.0,16.0,3.0,356.0,343.0,23.0,4387.0,102.0,37.0,2185.0,,,,AR,2017
5013,Calhoun County,5.0,-96.67,28.5,1638.03,0.0,0.0,15.0,3.0,444.0,,,,,,,32.0,4.0,745.0,,,,,,,14.0,3.0,450.0,,,,,,,,,,,,,,,,0.0,3.0,0.0,,,,20.0,4.0,237.0,16.0,10.0,224.0,,,,AR,2017
5019,Clark County,22.0,-87.78,39.33,2286.72,2.14,0.03,222.0,32.0,9492.0,,,,42.0,4.0,3401.0,52.0,19.0,1795.0,121.0,14.0,4906.0,30.0,7.0,1228.0,216.0,35.0,10456.0,69.0,28.0,1471.0,203.0,32.0,9106.0,0.0,4.0,0.0,97.0,12.0,4130.0,0.0,7.0,0.0,1171.0,55.0,34947.0,33.0,6.0,629.0,1172.0,61.0,17233.0,260.0,66.0,4751.0,,,,AR,2017
5011,Bradley County,11.0,-92.17,33.45,1691.01,0.0,0.0,338.0,42.0,9888.0,,,,,,,65.0,18.0,2604.0,157.0,12.0,5563.0,14.0,5.0,510.0,112.0,13.0,4928.0,11.0,5.0,135.0,30.0,13.0,775.0,,,,56.0,6.0,835.0,,,,504.0,31.0,17087.0,,,,223.0,18.0,2317.0,128.0,33.0,2957.0,,,,AR,2017
5075,Lawrence County,17.0,-80.35,41.0,1534.09,0.0,0.0,28.0,7.0,1721.0,21.0,3.0,1339.0,37.0,3.0,2968.0,48.0,16.0,1789.0,145.0,16.0,6564.0,15.0,5.0,542.0,78.0,17.0,3310.0,27.0,6.0,765.0,32.0,12.0,949.0,,,,0.0,3.0,0.0,372.0,3.0,5449.0,628.0,28.0,22509.0,25.0,3.0,447.0,278.0,24.0,3373.0,115.0,34.0,2685.0,,,,AR,2017
5095,Monroe County,7.0,-90.18,38.27,1609.34,0.0,0.0,45.0,10.0,3776.0,,,,,,,24.0,10.0,731.0,177.0,14.0,8829.0,75.0,6.0,1215.0,60.0,15.0,2828.0,14.0,6.0,159.0,20.0,13.0,425.0,,,,,,,,,,507.0,23.0,11070.0,,,,228.0,17.0,3037.0,75.0,18.0,1851.0,,,,AR,2017
5113,Polk County,20.0,-94.82,30.76,2233.25,0.0,0.0,51.0,10.0,2182.0,43.0,3.0,1903.0,34.0,4.0,2250.0,217.0,31.0,6429.0,86.0,15.0,3957.0,71.0,9.0,1980.0,154.0,25.0,6190.0,47.0,14.0,1295.0,79.0,30.0,2353.0,0.0,3.0,0.0,52.0,15.0,1059.0,,,,1063.0,45.0,34802.0,9.0,4.0,77.0,403.0,35.0,5380.0,256.0,55.0,5487.0,,,,AR,2017
5029,Conway County,21.0,-92.69,35.25,1467.82,0.0,0.0,,,,86.0,8.0,4716.0,33.0,4.0,2444.0,484.0,43.0,26691.0,267.0,16.0,11097.0,27.0,9.0,862.0,127.0,23.0,6033.0,17.0,8.0,589.0,154.0,26.0,2543.0,,,,41.0,6.0,1148.0,47.0,6.0,1068.0,600.0,47.0,15826.0,0.0,3.0,0.0,441.0,30.0,7861.0,196.0,52.0,4889.0,,,,AR,2017
5103,Ouachita County,24.0,-92.94,33.57,1916.03,0.0,0.0,102.0,14.0,4753.0,66.0,10.0,3088.0,70.0,5.0,4688.0,212.0,38.0,8080.0,288.0,22.0,12125.0,58.0,8.0,2439.0,201.0,33.0,8496.0,150.0,21.0,4313.0,145.0,22.0,5712.0,64.0,5.0,4713.0,133.0,15.0,3718.0,,,,1635.0,57.0,50605.0,24.0,8.0,301.0,529.0,36.0,6167.0,308.0,67.0,6064.0,,,,AR,2017
5101,Newton County,8.0,-93.74,30.81,2132.08,0.0,0.0,,,,,,,0.0,3.0,0.0,13.0,4.0,207.0,,,,,,,0.0,3.0,0.0,,,,5.0,3.0,92.0,,,,,,,,,,203.0,10.0,3805.0,8.0,3.0,103.0,137.0,13.0,2358.0,6.0,5.0,136.0,,,,AR,2017
5001,Arkansas County,18.0,-91.36,34.29,2677.27,0.0,0.0,102.0,14.0,6018.0,,,,43.0,3.0,3410.0,469.0,31.0,32609.0,383.0,34.0,20184.0,74.0,14.0,2534.0,231.0,29.0,12995.0,74.0,18.0,2185.0,83.0,23.0,2618.0,0.0,3.0,0.0,72.0,10.0,4331.0,0.0,3.0,0.0,836.0,48.0,27071.0,38.0,12.0,801.0,371.0,42.0,4862.0,248.0,51.0,5423.0,,,,AR,2017
5081,Little River County,12.0,-94.21,33.7,1462.79,0.0,0.0,27.0,7.0,1017.0,,,,,,,124.0,10.0,5770.0,,,,,,,64.0,13.0,2745.0,,,,39.0,7.0,1499.0,,,,20.0,4.0,595.0,,,,354.0,21.0,10358.0,,,,217.0,13.0,2252.0,105.0,27.0,1644.0,,,,AR,2017
5085,Lonoke County,72.0,-91.86,34.74,2079.32,1.56,0.05,48.0,10.0,2257.0,,,,,,,797.0,122.0,35504.0,340.0,40.0,15850.0,116.0,14.0,4163.0,540.0,96.0,29484.0,156.0,53.0,5486.0,497.0,89.0,24687.0,,,,812.0,42.0,10100.0,0.0,6.0,0.0,1449.0,118.0,44207.0,71.0,13.0,1063.0,1539.0,91.0,23402.0,650.0,107.0,13073.0,,,,AR,2017
5015,Carroll County,28.0,-89.96,42.06,1653.89,0.0,0.0,11.0,3.0,565.0,,,,0.0,4.0,0.0,329.0,63.0,12459.0,326.0,16.0,11597.0,70.0,11.0,3141.0,223.0,42.0,10952.0,48.0,24.0,1331.0,738.0,38.0,71106.0,,,,307.0,16.0,8693.0,130.0,7.0,2973.0,671.0,48.0,25766.0,75.0,17.0,1672.0,1380.0,145.0,21527.0,271.0,70.0,5657.0,,,,AR,2017
5091,Miller County,44.0,-84.74,31.16,1651.59,1.9,0.14,87.0,14.0,3244.0,68.0,5.0,4773.0,0.0,3.0,0.0,691.0,62.0,25055.0,416.0,41.0,19990.0,136.0,6.0,6753.0,261.0,50.0,12791.0,132.0,35.0,5793.0,182.0,40.0,6443.0,41.0,3.0,1454.0,717.0,40.0,18159.0,85.0,7.0,1407.0,1098.0,79.0,28485.0,115.0,6.0,3236.0,1391.0,73.0,17357.0,408.0,73.0,8878.0,,,,AR,2017
5123,St. Francis County,27.0,-90.73,35.02,1664.17,1.62,0.03,54.0,12.0,2038.0,,,,86.0,4.0,5998.0,193.0,33.0,7575.0,478.0,25.0,22464.0,93.0,11.0,2856.0,183.0,30.0,7110.0,134.0,27.0,3098.0,114.0,32.0,3741.0,,,,23.0,9.0,534.0,0.0,3.0,0.0,1408.0,62.0,46995.0,29.0,5.0,581.0,640.0,40.0,7872.0,126.0,44.0,2280.0,,,,AR,2017
5119,Pulaski County,393.0,-89.12,37.23,2091.98,1.96,1.97,20.0,13.0,2068.0,269.0,15.0,16198.0,1951.0,44.0,199661.0,9212.0,777.0,463986.0,12971.0,728.0,748334.0,9079.0,240.0,660472.0,14023.0,944.0,1113580.0,3343.0,687.0,149125.0,11022.0,1548.0,673004.0,5289.0,100.0,284812.0,12770.0,635.0,359863.0,3966.0,164.0,116188.0,46013.0,1514.0,2693000.0,2583.0,141.0,56201.0,21138.0,1058.0,355715.0,10258.0,1241.0,311118.0,8.0,6.0,102.0,AR,2017
5145,White County,79.0,-88.16,38.06,2699.21,1.8,0.03,25.0,6.0,678.0,174.0,19.0,19312.0,104.0,6.0,8863.0,1213.0,135.0,61520.0,474.0,67.0,25196.0,184.0,31.0,6647.0,596.0,106.0,31127.0,186.0,66.0,5731.0,538.0,103.0,20299.0,19.0,3.0,1696.0,658.0,56.0,16046.0,0.0,15.0,0.0,4746.0,178.0,173421.0,155.0,16.0,3252.0,2501.0,143.0,35953.0,992.0,166.0,25489.0,,,,AR,2017
4019,Pima County,1007.0,-111.65,32.11,23796.19,2.56,0.74,222.0,25.0,6890.0,2440.0,35.0,148913.0,1898.0,25.0,175024.0,19185.0,1657.0,923007.0,7279.0,744.0,367562.0,8130.0,324.0,492712.0,12482.0,1248.0,733635.0,6389.0,1341.0,242921.0,17073.0,2587.0,1077294.0,3761.0,149.0,213018.0,27512.0,1169.0,722606.0,6128.0,361.0,198008.0,61872.0,2873.0,3028430.0,6781.0,323.0,141393.0,45127.0,1855.0,834765.0,14404.0,1856.0,391865.0,22.0,17.0,653.0,AZ,2017
4013,Maricopa County,4156.0,-112.49,33.35,23889.3,3.04,4.19,437.0,94.0,18430.0,794.0,66.0,59822.0,7348.0,84.0,831921.0,110221.0,7670.0,6266768.0,73419.0,4635.0,4933030.0,41207.0,1698.0,2876370.0,139357.0,6996.0,10390951.0,37476.0,6912.0,2092967.0,115194.0,13242.0,8873793.0,54082.0,762.0,4079118.0,129308.0,6020.0,4808840.0,46567.0,1520.0,1850024.0,241406.0,12407.0,12296282.0,34713.0,1328.0,1328155.0,193628.0,7966.0,3873669.0,62509.0,7207.0,2164385.0,169.0,89.0,6209.0,AZ,2017
4007,Gila County,53.0,-110.68,33.74,12421.79,2.09,0.0,,,,1527.0,10.0,97106.0,84.0,8.0,8366.0,731.0,127.0,30711.0,140.0,20.0,7681.0,125.0,24.0,3979.0,164.0,47.0,7811.0,142.0,67.0,5853.0,245.0,80.0,9593.0,,,,169.0,32.0,4985.0,131.0,12.0,3253.0,2020.0,146.0,100128.0,619.0,16.0,15111.0,1996.0,138.0,36420.0,339.0,93.0,7665.0,,,,AZ,2017
4009,Graham County,38.0,-83.83,35.36,12017.94,2.02,0.02,0.0,4.0,0.0,,,,0.0,4.0,0.0,340.0,57.0,13835.0,262.0,21.0,12965.0,96.0,10.0,3240.0,102.0,24.0,5159.0,68.0,21.0,1983.0,496.0,28.0,14440.0,,,,98.0,17.0,2569.0,62.0,7.0,1196.0,2012.0,73.0,88255.0,41.0,9.0,530.0,974.0,57.0,12799.0,275.0,44.0,10956.0,,,,AZ,2017
4023,Santa Cruz County,46.0,-121.99,37.05,3206.7,1.93,0.08,170.0,11.0,2203.0,,,,74.0,6.0,4958.0,278.0,55.0,10977.0,2318.0,222.0,113046.0,76.0,12.0,2690.0,203.0,40.0,8543.0,126.0,44.0,3908.0,191.0,60.0,7638.0,,,,397.0,27.0,6810.0,101.0,10.0,2375.0,1701.0,73.0,85218.0,49.0,14.0,862.0,1406.0,96.0,23965.0,312.0,68.0,7266.0,0.0,3.0,0.0,AZ,2017
4003,Cochise County,127.0,-109.82,31.85,16106.86,2.21,0.03,51.0,6.0,1837.0,52.0,8.0,2607.0,651.0,21.0,49262.0,1093.0,182.0,44526.0,403.0,49.0,16084.0,324.0,38.0,13965.0,472.0,102.0,22129.0,406.0,106.0,10896.0,3400.0,225.0,232111.0,120.0,7.0,4946.0,1546.0,93.0,42713.0,666.0,30.0,30735.0,4782.0,285.0,183135.0,235.0,30.0,4236.0,3585.0,259.0,55952.0,1105.0,242.0,23747.0,,,,AZ,2017
4012,La Paz County,20.0,-114.02,33.79,11689.71,0.0,0.0,,,,12.0,4.0,913.0,35.0,6.0,2850.0,75.0,20.0,2700.0,96.0,16.0,5698.0,26.0,8.0,1358.0,59.0,13.0,1796.0,63.0,16.0,1304.0,21.0,12.0,744.0,,,,47.0,4.0,931.0,,,,401.0,25.0,18917.0,22.0,3.0,392.0,1456.0,81.0,26949.0,85.0,23.0,1954.0,,,,AZ,2017
4015,Mohave County,205.0,-113.83,35.72,34867.35,1.95,0.03,,,,89.0,11.0,5046.0,366.0,27.0,26945.0,2984.0,493.0,106128.0,1033.0,113.0,61880.0,686.0,57.0,23871.0,1090.0,188.0,54129.0,752.0,238.0,20471.0,1019.0,236.0,42525.0,243.0,7.0,15339.0,1706.0,203.0,49498.0,587.0,23.0,18410.0,8759.0,499.0,412222.0,464.0,42.0,10942.0,6751.0,403.0,111761.0,1812.0,359.0,43946.0,5.0,3.0,76.0,AZ,2017
4001,Apache County,72.0,-109.48,35.21,29057.03,0.0,0.0,11.0,6.0,754.0,120.0,5.0,7071.0,0.0,7.0,0.0,108.0,29.0,3417.0,50.0,13.0,1702.0,84.0,9.0,3836.0,74.0,13.0,2249.0,36.0,13.0,728.0,118.0,28.0,4113.0,,,,112.0,17.0,4290.0,279.0,8.0,8516.0,2369.0,72.0,113664.0,1.0,3.0,79.0,879.0,58.0,15054.0,180.0,47.0,4218.0,,,,AZ,2017
4005,Coconino County,139.0,-111.69,35.94,48335.59,3.12,0.03,25.0,10.0,1009.0,29.0,6.0,3837.0,225.0,18.0,19567.0,2389.0,353.0,98387.0,921.0,107.0,44179.0,945.0,51.0,42065.0,835.0,162.0,54416.0,869.0,222.0,30925.0,1611.0,355.0,77471.0,540.0,12.0,38310.0,1524.0,169.0,45121.0,699.0,38.0,21246.0,9237.0,424.0,487861.0,2094.0,111.0,48925.0,14973.0,600.0,329640.0,1849.0,333.0,51939.0,4.0,4.0,57.0,AZ,2017
4025,Yavapai County,221.0,-112.55,34.57,21050.57,2.17,0.03,61.0,9.0,1526.0,967.0,18.0,51190.0,317.0,29.0,23886.0,4739.0,802.0,204047.0,1453.0,159.0,75372.0,940.0,87.0,32984.0,1173.0,310.0,66350.0,1049.0,407.0,42380.0,2010.0,571.0,89861.0,340.0,19.0,14620.0,2326.0,336.0,64272.0,2327.0,89.0,69690.0,13935.0,791.0,594451.0,1192.0,99.0,23244.0,9828.0,578.0,195907.0,2587.0,530.0,69520.0,5.0,4.0,113.0,AZ,2017
4027,Yuma County,204.0,-102.46,40.02,14294.23,2.64,0.22,556.0,36.0,22480.0,43.0,5.0,1548.0,200.0,10.0,17359.0,2581.0,314.0,102898.0,2243.0,138.0,122750.0,602.0,41.0,21499.0,1236.0,153.0,55878.0,797.0,176.0,23523.0,1234.0,236.0,68432.0,302.0,14.0,12234.0,4335.0,155.0,135956.0,542.0,21.0,15105.0,8012.0,413.0,360397.0,564.0,30.0,12625.0,7110.0,342.0,104287.0,1571.0,276.0,39370.0,,,,AZ,2017
4011,Greenlee County,9.0,-109.28,33.23,4787.16,1.72,0.01,,,,,,,35.0,3.0,2389.0,35.0,6.0,2881.0,10.0,3.0,568.0,0.0,4.0,0.0,8.0,3.0,120.0,10.0,4.0,292.0,20.0,4.0,568.0,,,,110.0,3.0,1887.0,,,,0.0,11.0,0.0,,,,108.0,10.0,2605.0,19.0,6.0,258.0,,,,AZ,2017
4017,Navajo County,108.0,-110.35,35.18,25794.02,2.1,0.0,80.0,10.0,3689.0,501.0,8.0,35689.0,456.0,23.0,43550.0,1125.0,192.0,42432.0,345.0,44.0,15839.0,400.0,32.0,16796.0,331.0,73.0,13846.0,207.0,101.0,6771.0,382.0,123.0,13825.0,0.0,3.0,0.0,461.0,83.0,18369.0,426.0,13.0,14816.0,4407.0,255.0,231529.0,200.0,20.0,8470.0,4009.0,228.0,74386.0,791.0,169.0,18377.0,3.0,5.0,36.0,AZ,2017
4021,Pinal County,406.0,-111.44,32.81,13920.42,2.36,0.41,129.0,12.0,6306.0,842.0,22.0,63186.0,243.0,21.0,19729.0,2627.0,415.0,132214.0,1283.0,130.0,65524.0,474.0,56.0,21158.0,1092.0,204.0,44634.0,1491.0,225.0,46963.0,1351.0,291.0,53140.0,186.0,14.0,6810.0,6044.0,237.0,264179.0,940.0,43.0,33859.0,9629.0,503.0,450842.0,1364.0,63.0,19710.0,7337.0,371.0,119843.0,1988.0,349.0,48786.0,9.0,7.0,196.0,AZ,2017
6107,Tulare County,459.0,-118.85,36.25,12532.5,2.65,0.69,866.0,89.0,36770.0,21.0,6.0,1168.0,545.0,23.0,61915.0,5067.0,602.0,251174.0,5484.0,379.0,314796.0,1124.0,83.0,55753.0,3090.0,351.0,180154.0,1437.0,328.0,49985.0,2204.0,419.0,124179.0,428.0,20.0,26178.0,7352.0,293.0,205274.0,839.0,48.0,31450.0,16905.0,882.0,762674.0,1238.0,65.0,27765.0,9876.0,641.0,177961.0,3347.0,561.0,96553.0,4.0,5.0,101.0,CA,2017
6113,Yolo County,213.0,-121.91,38.72,2650.46,3.11,1.79,392.0,23.0,30272.0,111.0,11.0,9911.0,0.0,6.0,0.0,3501.0,329.0,248493.0,6887.0,283.0,422447.0,1402.0,80.0,84370.0,1109.0,182.0,77017.0,1689.0,302.0,72153.0,3726.0,461.0,284940.0,1274.0,26.0,117116.0,2727.0,195.0,102249.0,621.0,53.0,14064.0,7373.0,424.0,379277.0,1429.0,66.0,20127.0,9883.0,451.0,240242.0,2782.0,412.0,93917.0,7.0,4.0,175.0,CA,2017
6023,Humboldt County,135.0,-123.9,40.6,9352.11,2.75,0.12,454.0,59.0,27793.0,,,,0.0,6.0,0.0,1664.0,290.0,95374.0,1104.0,109.0,54042.0,496.0,44.0,19879.0,1112.0,161.0,67646.0,603.0,161.0,22455.0,1884.0,249.0,88679.0,270.0,13.0,13707.0,1135.0,110.0,36320.0,286.0,33.0,6783.0,7087.0,428.0,317726.0,724.0,55.0,14588.0,6320.0,403.0,112910.0,1569.0,292.0,47813.0,9.0,6.0,112.0,CA,2017
6087,Santa Cruz County,273.0,-121.99,37.05,1157.25,3.47,4.18,82.0,23.0,4812.0,9.0,6.0,681.0,0.0,5.0,0.0,4216.0,832.0,243717.0,5105.0,301.0,325875.0,1369.0,119.0,126231.0,2305.0,296.0,182687.0,1519.0,368.0,65248.0,4309.0,892.0,322218.0,1716.0,37.0,223431.0,3639.0,351.0,135697.0,2149.0,165.0,76154.0,13671.0,940.0,805843.0,3070.0,119.0,78608.0,12191.0,711.0,264252.0,4240.0,577.0,147259.0,33.0,6.0,600.0,CA,2017
6003,Alpine County,1.0,-119.83,38.59,1924.4,0.0,0.0,,,,,,,,,,11.0,4.0,632.0,,,,,,,,,,,,,,,,,,,,,,,,,0.0,4.0,0.0,0.0,4.0,0.0,53.0,8.0,1775.0,7.0,3.0,306.0,,,,CA,2017
6057,Nevada County,99.0,-120.81,39.35,2523.31,1.92,0.06,66.0,15.0,2890.0,20.0,8.0,1779.0,0.0,6.0,0.0,2440.0,521.0,134352.0,573.0,85.0,43700.0,371.0,49.0,19548.0,1091.0,142.0,88271.0,881.0,186.0,47952.0,1381.0,346.0,99802.0,70.0,5.0,3587.0,940.0,185.0,39904.0,560.0,43.0,15904.0,5694.0,332.0,261023.0,992.0,81.0,22479.0,6054.0,249.0,106779.0,1695.0,248.0,52368.0,5.0,6.0,90.0,CA,2017
6045,Mendocino County,87.0,-123.41,39.32,9103.0,2.63,0.06,432.0,61.0,24770.0,0.0,3.0,0.0,0.0,6.0,0.0,1092.0,250.0,59209.0,895.0,81.0,44836.0,257.0,42.0,13549.0,544.0,81.0,27675.0,510.0,134.0,17163.0,650.0,172.0,27668.0,154.0,7.0,7130.0,690.0,107.0,31313.0,419.0,29.0,10479.0,4443.0,255.0,209425.0,592.0,51.0,16045.0,4100.0,342.0,79655.0,892.0,212.0,26378.0,13.0,5.0,234.0,CA,2017
6039,Madera County,154.0,-119.77,37.17,5575.42,2.77,0.34,2590.0,30.0,41902.0,0.0,3.0,0.0,183.0,9.0,24873.0,1445.0,237.0,68668.0,1039.0,97.0,60718.0,432.0,24.0,30605.0,456.0,96.0,23227.0,396.0,102.0,13183.0,411.0,109.0,15828.0,49.0,4.0,3928.0,1365.0,107.0,44793.0,323.0,32.0,10827.0,6043.0,210.0,392748.0,326.0,31.0,6287.0,2891.0,210.0,53140.0,839.0,159.0,21984.0,,,,CA,2017
6041,Marin County,261.0,-122.62,38.04,1408.81,3.49,3.24,57.0,17.0,2049.0,,,,0.0,4.0,0.0,7084.0,1041.0,518827.0,2491.0,370.0,205591.0,5322.0,311.0,796670.0,4682.0,703.0,543684.0,2886.0,630.0,233229.0,8155.0,1820.0,777637.0,1096.0,67.0,105326.0,5591.0,541.0,286732.0,4870.0,205.0,190832.0,16387.0,1163.0,1042168.0,3451.0,289.0,117293.0,13326.0,765.0,341307.0,5625.0,784.0,237437.0,25.0,22.0,858.0,CA,2017
6105,Trinity County,13.0,-95.12,31.08,8306.87,0.0,0.0,,,,,,,13.0,4.0,235.0,73.0,30.0,7338.0,4.0,7.0,161.0,25.0,3.0,1189.0,37.0,9.0,1181.0,8.0,6.0,261.0,83.0,17.0,2961.0,,,,24.0,7.0,606.0,,,,318.0,22.0,12938.0,46.0,9.0,1184.0,266.0,47.0,5010.0,55.0,17.0,1231.0,,,,CA,2017
6037,Los Angeles County,10106.0,-118.21,34.32,10622.0,5.91,19.5,550.0,115.0,19420.0,3923.0,91.0,350567.0,14694.0,252.0,1688994.0,132657.0,14770.0,8151822.0,256414.0,22723.0,15780112.0,203456.0,11056.0,23192220.0,157148.0,13148.0,19559618.0,90525.0,16744.0,5767918.0,290791.0,36070.0,26661095.0,83917.0,1499.0,8069271.0,234999.0,11405.0,9285124.0,154606.0,4108.0,6205395.0,557151.0,33056.0,31098622.0,95185.0,16347.0,9451822.0,456325.0,23574.0,10253076.0,166458.0,20846.0,5546389.0,582.0,369.0,25358.0,CA,2017
6065,Riverside County,2355.0,-116.04,33.72,18915.64,2.96,2.52,889.0,70.0,32859.0,318.0,24.0,22221.0,1333.0,72.0,134163.0,56603.0,4677.0,3055211.0,28548.0,1939.0,1738319.0,7480.0,552.0,395857.0,12950.0,1870.0,865794.0,9996.0,2381.0,450714.0,20545.0,3639.0,1101103.0,3225.0,145.0,189660.0,38304.0,2279.0,1205533.0,10266.0,413.0,283771.0,81484.0,4775.0,4088831.0,16107.0,596.0,417216.0,92605.0,3938.0,2018566.0,23400.0,3285.0,654834.0,63.0,35.0,1270.0,CA,2017
6071,San Bernardino County,2121.0,-116.08,34.83,52076.85,3.3,0.86,132.0,22.0,4508.0,538.0,30.0,37316.0,3599.0,100.0,344088.0,32803.0,3345.0,1926322.0,43598.0,3070.0,2400805.0,9666.0,462.0,676366.0,15764.0,1638.0,969047.0,9074.0,1796.0,414968.0,19547.0,2757.0,996357.0,7594.0,178.0,414469.0,38646.0,1695.0,1342183.0,12624.0,408.0,425513.0,98526.0,4317.0,5502162.0,12721.0,408.0,332080.0,66634.0,3652.0,1178315.0,22888.0,3126.0,706183.0,56.0,29.0,1567.0,CA,2017
6089,Shasta County,179.0,-122.0,40.8,9965.12,2.1,0.11,370.0,38.0,25068.0,83.0,6.0,4398.0,331.0,14.0,43841.0,2903.0,467.0,171443.0,1829.0,167.0,93879.0,723.0,70.0,36795.0,1883.0,236.0,109807.0,869.0,217.0,32198.0,2166.0,361.0,121653.0,254.0,10.0,32695.0,3992.0,186.0,151148.0,1265.0,46.0,32235.0,10861.0,670.0,561497.0,704.0,63.0,15337.0,6378.0,374.0,120906.0,2732.0,390.0,79119.0,0.0,3.0,14.0,CA,2017
6085,Santa Clara County,1911.0,-121.68,37.23,3367.64,4.27,13.62,152.0,25.0,7328.0,156.0,10.0,13501.0,2030.0,21.0,249401.0,45964.0,3503.0,3825367.0,83399.0,2541.0,15401072.0,124878.0,1847.0,30917112.0,25298.0,2418.0,3646659.0,13606.0,2750.0,1032573.0,138484.0,8868.0,18897722.0,80268.0,287.0,19958350.0,58402.0,2235.0,2824894.0,51046.0,1072.0,3631099.0,114153.0,5906.0,9169486.0,17245.0,630.0,647965.0,90920.0,5104.0,2222291.0,30999.0,3889.0,1292936.0,134.0,78.0,2970.0,CA,2017
6061,Placer County,375.0,-120.77,39.1,3891.31,2.64,1.47,83.0,17.0,3668.0,11.0,3.0,613.0,0.0,11.0,0.0,13533.0,1440.0,901113.0,5110.0,394.0,353446.0,3133.0,171.0,328852.0,10649.0,834.0,877956.0,3520.0,799.0,197850.0,10220.0,1348.0,662308.0,5162.0,67.0,408269.0,8280.0,587.0,313318.0,2327.0,163.0,69847.0,22768.0,1277.0,1603636.0,4083.0,161.0,78151.0,23098.0,951.0,510437.0,6671.0,832.0,215447.0,24.0,13.0,399.0,CA,2017
6093,Siskiyou County,44.0,-122.54,41.69,16439.91,1.53,0.01,144.0,34.0,11058.0,66.0,4.0,3645.0,0.0,8.0,0.0,317.0,119.0,16908.0,245.0,27.0,7794.0,149.0,18.0,9863.0,212.0,50.0,12752.0,110.0,57.0,3294.0,306.0,91.0,12169.0,51.0,3.0,3553.0,451.0,39.0,10898.0,105.0,11.0,3927.0,1807.0,105.0,87527.0,430.0,25.0,4628.0,1538.0,146.0,28728.0,431.0,102.0,8536.0,,,,CA,2017
6063,Plumas County,19.0,-120.81,39.94,6768.49,0.0,0.0,23.0,7.0,1248.0,,,,0.0,6.0,0.0,247.0,88.0,15654.0,44.0,9.0,2365.0,72.0,8.0,3209.0,115.0,21.0,6185.0,60.0,28.0,1884.0,157.0,44.0,6852.0,,,,95.0,31.0,5928.0,90.0,11.0,3088.0,859.0,51.0,38182.0,67.0,18.0,4424.0,438.0,103.0,10793.0,179.0,51.0,5383.0,,,,CA,2017
6109,Tuolumne County,54.0,-119.99,38.06,5890.72,3.42,0.01,100.0,19.0,7033.0,0.0,3.0,0.0,90.0,11.0,8934.0,734.0,180.0,44785.0,119.0,28.0,5491.0,199.0,20.0,10849.0,235.0,55.0,12854.0,181.0,75.0,6020.0,433.0,86.0,22984.0,,,,372.0,75.0,14559.0,155.0,9.0,4185.0,2828.0,172.0,162027.0,1394.0,34.0,40658.0,1958.0,167.0,42965.0,600.0,109.0,18562.0,,,,CA,2017
6095,Solano County,435.0,-121.92,38.22,2305.12,3.08,4.66,38.0,10.0,730.0,147.0,6.0,13686.0,617.0,14.0,85222.0,9397.0,700.0,700735.0,4919.0,298.0,314776.0,1487.0,100.0,86223.0,4003.0,359.0,297702.0,1641.0,381.0,71852.0,3654.0,593.0,234590.0,1459.0,43.0,103729.0,5624.0,397.0,208108.0,2093.0,88.0,88305.0,22301.0,931.0,1577960.0,3102.0,111.0,50655.0,13309.0,775.0,245370.0,4993.0,739.0,210679.0,14.0,10.0,567.0,CA,2017
6015,Del Norte County,27.0,-123.91,41.73,2629.32,2.59,0.03,58.0,20.0,1997.0,,,,,,,104.0,41.0,4212.0,33.0,6.0,1395.0,94.0,8.0,3806.0,83.0,19.0,3762.0,96.0,31.0,2598.0,100.0,23.0,2556.0,,,,63.0,13.0,2790.0,0.0,4.0,0.0,1300.0,64.0,58748.0,0.0,4.0,0.0,605.0,64.0,11156.0,126.0,32.0,3153.0,,,,CA,2017
6011,Colusa County,21.0,-122.22,39.15,2995.0,2.35,0.11,88.0,14.0,6151.0,,,,0.0,5.0,0.0,246.0,34.0,11285.0,356.0,25.0,23450.0,17.0,6.0,922.0,88.0,21.0,5314.0,43.0,17.0,2366.0,38.0,18.0,1518.0,,,,133.0,9.0,4349.0,,,,242.0,26.0,8816.0,30.0,7.0,646.0,969.0,36.0,26469.0,89.0,30.0,2435.0,,,,CA,2017
6021,Glenn County,28.0,-122.38,39.59,3436.11,2.91,0.02,225.0,16.0,10937.0,25.0,3.0,1777.0,0.0,6.0,0.0,243.0,46.0,13053.0,255.0,20.0,14055.0,,,,121.0,29.0,7965.0,27.0,15.0,1221.0,97.0,24.0,2762.0,,,,55.0,10.0,1243.0,39.0,3.0,952.0,489.0,43.0,22755.0,54.0,8.0,1611.0,651.0,50.0,10491.0,183.0,43.0,5503.0,,,,CA,2017
6007,Butte County,225.0,-121.59,39.65,4343.67,2.92,0.73,209.0,29.0,8745.0,30.0,4.0,1861.0,97.0,9.0,7862.0,3245.0,504.0,166923.0,2020.0,160.0,100322.0,1217.0,71.0,67500.0,2675.0,308.0,170189.0,1110.0,255.0,35840.0,2605.0,438.0,130142.0,921.0,20.0,48431.0,2694.0,224.0,92876.0,692.0,60.0,19504.0,15429.0,718.0,789237.0,1537.0,58.0,32867.0,8317.0,455.0,146495.0,4018.0,443.0,82705.0,2.0,3.0,54.0,CA,2017
6031,Kings County,150.0,-73.95,40.65,3603.99,2.29,0.96,431.0,27.0,13644.0,,,,30.0,5.0,2114.0,838.0,126.0,43401.0,751.0,65.0,43330.0,255.0,22.0,12997.0,495.0,79.0,24756.0,388.0,112.0,12220.0,948.0,106.0,46236.0,154.0,4.0,4874.0,518.0,59.0,19367.0,209.0,21.0,4866.0,5196.0,213.0,276906.0,244.0,14.0,4189.0,4156.0,196.0,96368.0,782.0,157.0,18960.0,,,,CA,2017
6019,Fresno County,972.0,-119.82,36.67,15568.59,3.01,1.46,2604.0,127.0,100182.0,181.0,8.0,13672.0,0.0,33.0,0.0,15793.0,1558.0,886235.0,15864.0,948.0,952585.0,4272.0,256.0,231566.0,9341.0,1012.0,650109.0,4951.0,851.0,223494.0,11004.0,1584.0,620932.0,2362.0,86.0,187722.0,16795.0,839.0,513675.0,7382.0,181.0,164549.0,46657.0,2400.0,2582341.0,5785.0,203.0,142094.0,29852.0,1648.0,519295.0,13482.0,1381.0,408140.0,117.0,15.0,2069.0,CA,2017
6079,San Luis Obispo County,280.0,-120.38,35.35,8608.71,2.75,0.42,192.0,41.0,9411.0,77.0,8.0,3238.0,0.0,18.0,0.0,6570.0,1012.0,426594.0,2687.0,306.0,148325.0,2953.0,132.0,221525.0,2180.0,422.0,174263.0,1863.0,490.0,81732.0,4939.0,932.0,306513.0,553.0,36.0,47631.0,4251.0,421.0,180499.0,3331.0,93.0,48123.0,14683.0,1061.0,791815.0,1660.0,140.0,33701.0,16702.0,982.0,346457.0,3790.0,587.0,95912.0,5.0,7.0,117.0,CA,2017
6029,Kern County,879.0,-118.75,35.31,21138.87,3.01,0.84,3955.0,61.0,158333.0,6807.0,178.0,653734.0,1346.0,66.0,137336.0,12556.0,1123.0,719368.0,8960.0,637.0,519249.0,3042.0,176.0,130330.0,5819.0,635.0,380184.0,3474.0,666.0,152881.0,9439.0,1193.0,580239.0,2379.0,70.0,240950.0,12176.0,638.0,465107.0,2072.0,148.0,61923.0,29530.0,1686.0,1587766.0,2565.0,149.0,48857.0,23610.0,1463.0,417962.0,8400.0,1137.0,251309.0,34.0,13.0,534.0,CA,2017
6059,Orange County,3156.0,-117.87,33.75,2069.49,4.46,36.53,189.0,40.0,7502.0,316.0,36.0,26292.0,2769.0,85.0,291816.0,96863.0,6966.0,6538539.0,109079.0,7714.0,8990802.0,38564.0,1759.0,3978434.0,93691.0,6485.0,9579151.0,44066.0,6485.0,3138823.0,136901.0,15952.0,11487607.0,47228.0,752.0,4328910.0,114603.0,4739.0,5447914.0,30462.0,1529.0,1086516.0,170939.0,12232.0,9024925.0,55426.0,1317.0,2116005.0,177371.0,8243.0,3891247.0,55896.0,6761.0,1765681.0,177.0,110.0,5431.0,CA,2017
6111,Ventura County,848.0,-119.08,34.45,4810.95,3.74,3.62,787.0,82.0,36217.0,662.0,32.0,55256.0,865.0,54.0,96025.0,14802.0,2099.0,807757.0,15539.0,1132.0,1332297.0,5702.0,452.0,352334.0,11250.0,1376.0,948770.0,4629.0,1190.0,238399.0,22776.0,2833.0,2690293.0,4982.0,107.0,516869.0,14565.0,1197.0,612313.0,5913.0,287.0,192165.0,38926.0,2793.0,1935000.0,4480.0,473.0,121925.0,32891.0,1721.0,647322.0,10460.0,1634.0,303527.0,20.0,22.0,641.0,CA,2017
6009,Calaveras County,45.0,-120.5,38.26,2685.68,0.0,0.0,35.0,9.0,1504.0,0.0,3.0,0.0,,,,641.0,172.0,32019.0,90.0,22.0,4082.0,101.0,9.0,6255.0,123.0,33.0,5224.0,95.0,44.0,3801.0,236.0,65.0,11874.0,52.0,5.0,1655.0,187.0,36.0,7124.0,66.0,9.0,1370.0,1002.0,91.0,49416.0,268.0,17.0,5436.0,1194.0,121.0,22873.0,369.0,92.0,9217.0,,,,CA,2017
6101,Sutter County,96.0,-121.7,38.95,1576.09,2.89,1.3,338.0,24.0,17904.0,,,,262.0,10.0,33432.0,1113.0,189.0,67876.0,1422.0,74.0,91349.0,253.0,18.0,13228.0,875.0,111.0,73850.0,357.0,83.0,12532.0,612.0,124.0,27900.0,194.0,6.0,13650.0,2148.0,96.0,64586.0,298.0,15.0,7793.0,3587.0,242.0,179802.0,331.0,30.0,4948.0,2400.0,149.0,42288.0,848.0,158.0,26418.0,,,,CA,2017
6081,San Mateo County,763.0,-122.33,37.5,1186.44,4.82,13.48,60.0,21.0,2574.0,62.0,6.0,10440.0,0.0,13.0,0.0,18964.0,1908.0,1538551.0,21235.0,1070.0,4133574.0,47903.0,668.0,15971195.0,18382.0,1353.0,4322682.0,7200.0,1251.0,483870.0,40613.0,3275.0,6353625.0,7984.0,202.0,1490010.0,21028.0,1158.0,1079025.0,7659.0,416.0,355113.0,36465.0,2497.0,2581352.0,6717.0,299.0,192414.0,41559.0,2170.0,1141137.0,14738.0,1710.0,782056.0,43.0,35.0,1486.0,CA,2017
6005,Amador County,37.0,-120.59,38.45,1569.56,0.0,0.0,35.0,10.0,1276.0,81.0,5.0,4706.0,0.0,4.0,0.0,355.0,98.0,18451.0,97.0,23.0,4606.0,202.0,14.0,10477.0,181.0,44.0,10118.0,108.0,42.0,4051.0,316.0,71.0,12619.0,,,,142.0,29.0,6747.0,11.0,4.0,342.0,1409.0,107.0,71637.0,140.0,14.0,2341.0,2467.0,110.0,70149.0,343.0,83.0,10213.0,,,,CA,2017
6077,San Joaquin County,724.0,-121.28,37.94,3694.95,3.15,4.84,1382.0,69.0,74483.0,165.0,11.0,10886.0,297.0,17.0,31931.0,11786.0,1101.0,733666.0,12997.0,601.0,826677.0,2202.0,128.0,124990.0,6063.0,584.0,452090.0,2900.0,565.0,130434.0,5101.0,814.0,270269.0,1855.0,60.0,141853.0,11859.0,580.0,430009.0,4761.0,128.0,158519.0,30162.0,1507.0,1558623.0,2540.0,142.0,54874.0,19298.0,1185.0,337755.0,7496.0,1127.0,220895.0,42.0,20.0,1428.0,CA,2017
6073,San Diego County,3284.0,-116.77,32.96,11032.43,4.43,6.4,656.0,147.0,34305.0,336.0,24.0,22235.0,5301.0,107.0,564647.0,75797.0,7174.0,4816832.0,50692.0,4364.0,3865700.0,35360.0,1602.0,3368381.0,56391.0,4990.0,4992446.0,28533.0,6328.0,1688284.0,146561.0,14299.0,15813271.0,23352.0,425.0,2295452.0,83560.0,4342.0,3359718.0,34797.0,1420.0,1370772.0,175593.0,9618.0,10538974.0,34659.0,1282.0,982373.0,179017.0,7812.0,4194852.0,55348.0,6910.0,1732121.0,176.0,104.0,5565.0,CA,2017
6047,Merced County,267.0,-120.77,37.16,5124.92,2.66,1.03,1537.0,58.0,55981.0,58.0,4.0,2392.0,0.0,9.0,0.0,2604.0,310.0,111616.0,1714.0,111.0,90863.0,446.0,36.0,20140.0,1124.0,173.0,55646.0,599.0,153.0,19218.0,875.0,162.0,34346.0,85.0,7.0,4873.0,1279.0,155.0,45571.0,248.0,21.0,7241.0,7724.0,444.0,360002.0,795.0,47.0,15095.0,5305.0,340.0,83909.0,1307.0,263.0,32179.0,24.0,4.0,184.0,CA,2017
6033,Lake County,64.0,-122.78,39.05,3443.0,1.79,0.02,183.0,8.0,8075.0,21.0,4.0,760.0,0.0,10.0,0.0,678.0,201.0,30540.0,152.0,24.0,7169.0,117.0,11.0,6803.0,226.0,49.0,9852.0,166.0,65.0,5761.0,287.0,67.0,11666.0,,,,190.0,50.0,8306.0,96.0,11.0,2821.0,2396.0,151.0,119881.0,206.0,13.0,5459.0,1604.0,126.0,31575.0,478.0,95.0,11014.0,,,,CA,2017
6043,Mariposa County,18.0,-119.9,37.57,3789.01,0.0,0.0,,,,,,,13.0,4.0,929.0,154.0,54.0,7524.0,12.0,5.0,449.0,24.0,4.0,2316.0,30.0,6.0,1198.0,68.0,21.0,2430.0,69.0,23.0,3015.0,18.0,3.0,1309.0,42.0,17.0,1096.0,108.0,7.0,3233.0,423.0,38.0,19076.0,27.0,6.0,505.0,966.0,43.0,25635.0,76.0,28.0,1493.0,,,,CA,2017
6049,Modoc County,9.0,-120.74,41.55,10886.94,0.0,0.0,44.0,5.0,3901.0,,,,0.0,3.0,0.0,28.0,17.0,984.0,37.0,5.0,1608.0,13.0,3.0,533.0,30.0,8.0,1922.0,10.0,6.0,341.0,29.0,11.0,741.0,,,,26.0,5.0,1400.0,,,,462.0,20.0,13918.0,,,,121.0,18.0,2821.0,70.0,11.0,1779.0,,,,CA,2017
6115,Yuba County,75.0,-121.36,39.28,1667.98,2.8,0.42,77.0,6.0,5554.0,128.0,6.0,16121.0,,,,759.0,95.0,52426.0,783.0,33.0,25787.0,124.0,16.0,6949.0,155.0,38.0,5521.0,94.0,41.0,2656.0,811.0,87.0,38738.0,,,,355.0,28.0,16560.0,604.0,8.0,19684.0,2608.0,83.0,165747.0,126.0,16.0,4884.0,1067.0,85.0,20530.0,402.0,85.0,8192.0,,,,CA,2017
6013,Contra Costa County,1124.0,-121.92,37.9,1970.58,3.45,13.57,59.0,26.0,1743.0,152.0,12.0,5259.0,0.0,24.0,0.0,24696.0,2361.0,2025438.0,11703.0,966.0,923289.0,10633.0,463.0,1305755.0,24722.0,1773.0,2627638.0,7113.0,1463.0,465241.0,24462.0,3528.0,2257440.0,12903.0,206.0,2473690.0,21706.0,1430.0,1058695.0,8715.0,421.0,330655.0,59452.0,3239.0,4065682.0,7749.0,408.0,221285.0,34285.0,2074.0,716055.0,16567.0,2064.0,606403.0,52.0,30.0,1154.0,CA,2017
6035,Lassen County,31.0,-120.73,40.77,12227.21,1.65,0.04,82.0,11.0,7797.0,,,,31.0,4.0,3348.0,135.0,39.0,6877.0,62.0,9.0,2722.0,110.0,13.0,2766.0,95.0,23.0,4862.0,57.0,27.0,1460.0,264.0,24.0,8459.0,,,,55.0,13.0,2732.0,0.0,4.0,0.0,835.0,56.0,41304.0,15.0,5.0,421.0,667.0,49.0,12511.0,124.0,42.0,2662.0,,,,CA,2017
6083,Santa Barbara County,443.0,-119.99,34.71,7126.62,4.65,1.28,887.0,69.0,38473.0,618.0,37.0,50053.0,300.0,16.0,34676.0,7705.0,1147.0,439812.0,6241.0,439.0,515752.0,7070.0,236.0,823474.0,3988.0,620.0,372436.0,2976.0,735.0,130847.0,10096.0,1417.0,800631.0,3448.0,58.0,328436.0,7968.0,666.0,277438.0,3917.0,204.0,134150.0,23024.0,1436.0,1267605.0,3171.0,268.0,92540.0,25345.0,1217.0,662622.0,6764.0,978.0,234856.0,43.0,14.0,737.0,CA,2017
6097,Sonoma County,501.0,-122.85,38.51,4123.01,3.12,2.19,706.0,88.0,26159.0,166.0,9.0,11555.0,0.0,11.0,0.0,12426.0,1928.0,830043.0,10220.0,616.0,804092.0,2948.0,216.0,186270.0,6553.0,720.0,558394.0,3274.0,701.0,156218.0,8603.0,1603.0,582463.0,2307.0,66.0,193143.0,10848.0,785.0,418028.0,3145.0,199.0,124315.0,25337.0,1543.0,1593424.0,4222.0,259.0,113245.0,23979.0,1307.0,550214.0,7865.0,1143.0,264354.0,23.0,19.0,690.0,CA,2017
6027,Inyo County,18.0,-117.41,36.56,26489.09,0.0,0.0,8.0,3.0,143.0,,,,0.0,9.0,0.0,156.0,49.0,7479.0,161.0,20.0,6539.0,57.0,10.0,2109.0,75.0,15.0,3820.0,94.0,28.0,2554.0,139.0,31.0,6464.0,,,,61.0,17.0,2954.0,0.0,3.0,0.0,1171.0,48.0,56896.0,259.0,20.0,7758.0,1416.0,88.0,29987.0,195.0,46.0,5794.0,,,,CA,2017
6099,Stanislaus County,536.0,-121.05,37.55,3920.91,2.94,3.51,1985.0,63.0,56889.0,,,,0.0,5.0,0.0,8125.0,901.0,421388.0,8032.0,452.0,510257.0,1450.0,111.0,73782.0,3446.0,532.0,219318.0,2040.0,479.0,85723.0,6349.0,689.0,315320.0,1575.0,42.0,117274.0,7259.0,419.0,270409.0,1643.0,95.0,46620.0,25197.0,1155.0,1604562.0,1707.0,104.0,31438.0,16599.0,924.0,278955.0,6698.0,912.0,220273.0,19.0,15.0,268.0,CA,2017
6103,Tehama County,63.0,-122.2,40.13,7673.21,3.7,0.02,403.0,16.0,19052.0,,,,0.0,4.0,0.0,549.0,98.0,48917.0,200.0,26.0,8299.0,125.0,14.0,7170.0,208.0,49.0,9465.0,114.0,46.0,4114.0,219.0,56.0,7461.0,48.0,3.0,2355.0,398.0,53.0,13522.0,4.0,3.0,74.0,2002.0,136.0,93890.0,138.0,15.0,2510.0,1985.0,126.0,42201.0,423.0,91.0,11387.0,,,,CA,2017
6025,Imperial County,180.0,-115.36,33.03,11605.94,3.23,0.25,695.0,33.0,21091.0,0.0,4.0,0.0,392.0,12.0,36680.0,1328.0,139.0,64277.0,2016.0,220.0,103277.0,379.0,41.0,16555.0,752.0,128.0,39540.0,759.0,158.0,23573.0,898.0,182.0,35690.0,68.0,7.0,2701.0,1157.0,87.0,41916.0,497.0,16.0,14687.0,5327.0,289.0,239214.0,337.0,24.0,6088.0,4157.0,281.0,69680.0,947.0,199.0,25225.0,3.0,4.0,30.0,CA,2017
6051,Mono County,14.0,-118.94,37.95,8109.44,4.51,0.0,,,,0.0,3.0,0.0,0.0,3.0,0.0,323.0,99.0,14692.0,18.0,8.0,1267.0,29.0,10.0,926.0,21.0,7.0,1518.0,345.0,67.0,11946.0,99.0,34.0,4745.0,,,,215.0,38.0,8073.0,0.0,3.0,0.0,505.0,35.0,31829.0,50.0,12.0,1818.0,4094.0,144.0,125647.0,223.0,56.0,7114.0,,,,CA,2017
6069,San Benito County,59.0,-121.12,36.62,3601.92,3.02,0.4,286.0,10.0,10379.0,29.0,5.0,1713.0,,,,1469.0,174.0,74234.0,647.0,43.0,50245.0,92.0,9.0,3443.0,214.0,42.0,15285.0,121.0,54.0,5276.0,263.0,76.0,15143.0,,,,1111.0,62.0,36890.0,165.0,11.0,6013.0,1482.0,95.0,85283.0,253.0,16.0,3993.0,1394.0,95.0,24848.0,431.0,84.0,10673.0,,,,CA,2017
6001,Alameda County,1630.0,-121.9,37.61,1944.27,5.3,18.04,93.0,17.0,4231.0,288.0,7.0,34164.0,1296.0,21.0,183100.0,45170.0,2924.0,3744891.0,51374.0,2593.0,3799030.0,30357.0,925.0,4756673.0,19155.0,1621.0,1879242.0,10515.0,2165.0,649105.0,71607.0,6178.0,7720492.0,21490.0,300.0,2651672.0,38278.0,1739.0,2302973.0,19882.0,939.0,706697.0,98039.0,4836.0,6502044.0,11192.0,597.0,800902.0,66350.0,4187.0,1487096.0,28920.0,3747.0,1212866.0,114.0,50.0,2385.0,CA,2017
6067,Sacramento County,1495.0,-121.3,38.47,2575.28,3.01,16.59,199.0,34.0,9407.0,103.0,6.0,11793.0,2056.0,30.0,247629.0,32587.0,2722.0,2179672.0,21524.0,1269.0,1425447.0,13777.0,520.0,1038117.0,29450.0,1874.0,2237599.0,9078.0,1731.0,442398.0,42051.0,3915.0,4090056.0,6755.0,189.0,578590.0,38274.0,1677.0,1426856.0,10399.0,486.0,362994.0,87655.0,3630.0,6079645.0,8160.0,390.0,308200.0,57075.0,2914.0,1047283.0,22242.0,2963.0,877312.0,57.0,26.0,1179.0,CA,2017
6017,El Dorado County,185.0,-120.53,38.76,4626.65,2.39,0.22,63.0,16.0,3838.0,24.0,4.0,1719.0,81.0,8.0,10780.0,4388.0,713.0,313328.0,723.0,134.0,55064.0,705.0,70.0,44518.0,3007.0,232.0,299667.0,1080.0,270.0,43554.0,2448.0,579.0,172035.0,266.0,13.0,21676.0,1961.0,268.0,95392.0,912.0,53.0,32389.0,6538.0,459.0,350989.0,4710.0,90.0,106475.0,7637.0,493.0,159518.0,1923.0,372.0,57208.0,,,,CA,2017
6053,Monterey County,433.0,-121.39,36.22,8587.23,4.59,0.89,2084.0,78.0,111411.0,284.0,12.0,24332.0,698.0,27.0,88943.0,5444.0,943.0,310522.0,6047.0,385.0,418132.0,1543.0,130.0,89656.0,2868.0,403.0,238866.0,1926.0,472.0,86285.0,7424.0,807.0,410920.0,1079.0,35.0,91119.0,6457.0,479.0,243957.0,2150.0,102.0,87218.0,16840.0,998.0,1091613.0,3200.0,152.0,134992.0,21927.0,1096.0,541231.0,4883.0,740.0,153269.0,32.0,12.0,376.0,CA,2017
6055,Napa County,141.0,-122.32,38.49,2042.41,2.98,1.52,750.0,50.0,39431.0,,,,0.0,7.0,0.0,3497.0,455.0,242328.0,1904.0,192.0,154241.0,478.0,50.0,31136.0,1459.0,205.0,163961.0,983.0,217.0,49041.0,1910.0,437.0,130902.0,689.0,18.0,52333.0,4511.0,236.0,160905.0,1698.0,62.0,47795.0,10601.0,432.0,670644.0,1001.0,69.0,27458.0,11920.0,406.0,359649.0,2008.0,314.0,69042.0,6.0,7.0,181.0,CA,2017
6075,San Francisco County,864.0,-108.89,33.76,127.26,12.39,74.24,39.0,8.0,2058.0,,,,0.0,17.0,0.0,20271.0,1754.0,1862418.0,14805.0,1082.0,1478898.0,71358.0,1793.0,12573162.0,56523.0,2360.0,13402272.0,17099.0,2115.0,1628795.0,110447.0,7188.0,15163437.0,22366.0,267.0,3140412.0,44678.0,1432.0,3047495.0,24100.0,631.0,1153992.0,68534.0,3322.0,5365760.0,14983.0,616.0,825933.0,88386.0,4564.0,2816836.0,29123.0,2829.0,1310985.0,108.0,50.0,3610.0,CA,2017
6091,Sierra County,3.0,-120.53,39.58,2491.81,0.0,0.0,,,,,,,,,,35.0,13.0,2324.0,,,,,,,,,,,,,0.0,3.0,0.0,,,,,,,,,,41.0,10.0,1289.0,,,,76.0,18.0,2658.0,,,,,,,CA,2017
8095,Phillips County,4.0,-102.37,40.59,1781.94,0.0,0.0,11.0,3.0,418.0,,,,,,,32.0,15.0,1020.0,96.0,13.0,5115.0,34.0,5.0,1422.0,56.0,12.0,2529.0,,,,20.0,10.0,853.0,,,,,,,,,,282.0,9.0,12493.0,,,,104.0,15.0,1060.0,47.0,19.0,997.0,,,,CO,2017
8007,Archuleta County,13.0,-107.08,37.2,3509.36,0.0,0.0,5.0,4.0,428.0,,,,0.0,3.0,0.0,247.0,96.0,10788.0,18.0,7.0,1087.0,81.0,14.0,2989.0,97.0,20.0,4851.0,186.0,40.0,6964.0,99.0,44.0,4730.0,,,,148.0,26.0,3135.0,31.0,4.0,275.0,293.0,35.0,8282.0,446.0,18.0,6199.0,715.0,53.0,14411.0,190.0,43.0,5339.0,,,,CO,2017
8031,Denver County,678.0,-104.98,39.74,401.26,3.79,45.78,132.0,9.0,3671.0,3743.0,235.0,597127.0,3343.0,30.0,283797.0,18638.0,1502.0,1249574.0,23545.0,1356.0,1619613.0,15971.0,663.0,1833077.0,25346.0,1661.0,3158648.0,11130.0,2005.0,749534.0,44482.0,5017.0,4586117.0,18153.0,292.0,2369353.0,44680.0,1347.0,1525866.0,17453.0,460.0,583283.0,55805.0,2329.0,3225408.0,11330.0,474.0,671451.0,56221.0,2344.0,1349925.0,20106.0,2246.0,723999.0,24.0,16.0,760.0,CO,2017
8061,Kiowa County,1.0,-99.3,37.55,4624.36,0.0,0.0,,,,,,,,,,,,,15.0,5.0,808.0,,,,,,,,,,,,,,,,,,,,,,0.0,3.0,0.0,,,,0.0,3.0,0.0,8.0,4.0,95.0,,,,CO,2017
8055,Huerfano County,6.0,-105.02,37.7,4126.63,0.0,0.0,,,,,,,,,,52.0,19.0,2517.0,8.0,3.0,82.0,19.0,4.0,645.0,19.0,6.0,613.0,23.0,10.0,448.0,39.0,13.0,1709.0,,,,,,,,,,453.0,15.0,17103.0,10.0,5.0,367.0,172.0,22.0,2755.0,33.0,12.0,668.0,,,,CO,2017
8009,Baca County,4.0,-102.58,37.31,6622.28,0.0,0.0,5.0,3.0,146.0,0.0,3.0,0.0,,,,29.0,6.0,904.0,50.0,13.0,2153.0,,,,22.0,5.0,822.0,5.0,3.0,26.0,12.0,4.0,455.0,,,,,,,,,,0.0,5.0,0.0,,,,25.0,4.0,244.0,22.0,12.0,430.0,,,,CO,2017
8015,Chaffee County,19.0,-106.18,38.74,2629.68,1.55,0.03,2.0,4.0,322.0,,,,69.0,3.0,5470.0,594.0,155.0,32930.0,138.0,20.0,4383.0,90.0,13.0,2882.0,266.0,44.0,16987.0,164.0,82.0,4873.0,204.0,105.0,8534.0,,,,112.0,34.0,2728.0,89.0,10.0,1698.0,1002.0,77.0,48295.0,443.0,33.0,8422.0,1394.0,113.0,30259.0,277.0,73.0,7300.0,,,,CO,2017
8047,Gilpin County,6.0,-105.5,39.86,389.2,0.0,0.0,,,,,,,,,,43.0,16.0,1691.0,,,,,,,,,,12.0,7.0,629.0,32.0,21.0,1980.0,,,,19.0,12.0,1956.0,,,,17.0,4.0,547.0,1844.0,19.0,68454.0,2771.0,13.0,103816.0,61.0,10.0,1108.0,,,,CO,2017
8063,Kit Carson County,8.0,-102.62,39.31,5598.21,0.0,0.0,34.0,6.0,1472.0,39.0,6.0,1582.0,48.0,7.0,3862.0,78.0,19.0,3276.0,278.0,24.0,12141.0,44.0,11.0,907.0,109.0,27.0,5572.0,38.0,11.0,999.0,37.0,18.0,1271.0,,,,32.0,9.0,885.0,,,,314.0,27.0,11759.0,2.0,3.0,87.0,312.0,27.0,4586.0,79.0,27.0,2608.0,,,,CO,2017
8045,Garfield County,58.0,-107.88,39.55,7655.65,2.12,0.04,20.0,8.0,557.0,619.0,50.0,57861.0,187.0,13.0,18656.0,3010.0,516.0,169320.0,405.0,64.0,23035.0,216.0,43.0,8989.0,699.0,98.0,45880.0,593.0,152.0,25644.0,1083.0,318.0,66909.0,71.0,9.0,3493.0,1150.0,149.0,58725.0,272.0,31.0,8709.0,2980.0,164.0,184731.0,356.0,48.0,10253.0,3242.0,215.0,74384.0,870.0,186.0,29657.0,,,,CO,2017
8051,Gunnison County,16.0,-107.06,38.65,8438.98,1.78,0.01,6.0,3.0,97.0,0.0,5.0,0.0,0.0,5.0,0.0,622.0,231.0,28852.0,19.0,10.0,826.0,109.0,23.0,4687.0,157.0,33.0,8507.0,239.0,102.0,7832.0,301.0,144.0,14254.0,,,,177.0,55.0,6262.0,48.0,15.0,767.0,625.0,61.0,27054.0,165.0,43.0,6021.0,2415.0,134.0,41171.0,338.0,98.0,7907.0,,,,CO,2017
8059,Jefferson County,564.0,-94.17,29.83,2004.66,2.52,6.63,91.0,27.0,7065.0,526.0,82.0,50292.0,1114.0,36.0,98817.0,15683.0,2091.0,881577.0,4949.0,700.0,350006.0,3775.0,304.0,275727.0,15680.0,1100.0,726592.0,2911.0,1086.0,144417.0,19735.0,3147.0,1540692.0,7520.0,118.0,617758.0,13686.0,946.0,563409.0,4059.0,295.0,129502.0,30756.0,1826.0,1436023.0,3032.0,281.0,67512.0,24412.0,1242.0,485561.0,9779.0,1480.0,328271.0,8.0,10.0,123.0,CO,2017
8079,Mineral County,1.0,-106.93,37.66,2273.97,0.0,0.0,,,,,,,,,,27.0,8.0,931.0,,,,,,,,,,3.0,3.0,120.0,7.0,5.0,222.0,,,,,,,,,,,,,15.0,4.0,934.0,66.0,19.0,3415.0,13.0,6.0,219.0,,,,CO,2017
8091,Ouray County,5.0,-107.74,38.15,1404.34,0.0,0.0,,,,,,,0.0,3.0,0.0,138.0,38.0,7410.0,1.0,4.0,130.0,10.0,5.0,278.0,50.0,10.0,2933.0,15.0,10.0,477.0,56.0,52.0,3096.0,,,,66.0,17.0,2544.0,0.0,3.0,0.0,55.0,14.0,2017.0,28.0,10.0,908.0,415.0,56.0,11185.0,47.0,15.0,1760.0,,,,CO,2017
8103,Rio Blanco County,7.0,-108.18,39.98,8349.66,0.0,0.0,,,,616.0,31.0,52563.0,0.0,3.0,0.0,134.0,27.0,9433.0,15.0,4.0,741.0,14.0,5.0,478.0,39.0,8.0,1832.0,22.0,8.0,613.0,41.0,10.0,1437.0,,,,21.0,8.0,1012.0,,,,0.0,9.0,0.0,12.0,5.0,439.0,193.0,23.0,3702.0,53.0,21.0,1139.0,,,,CO,2017
8115,Sedgwick County,2.0,-97.46,37.64,1422.42,0.0,0.0,,,,,,,,,,12.0,5.0,388.0,34.0,7.0,1478.0,8.0,3.0,113.0,24.0,4.0,1092.0,,,,13.0,6.0,292.0,,,,34.0,6.0,741.0,,,,0.0,6.0,0.0,,,,48.0,6.0,387.0,14.0,9.0,362.0,,,,CO,2017
8123,Weld County,286.0,-104.48,40.56,10404.37,2.69,0.34,119.0,29.0,11802.0,3528.0,165.0,312068.0,326.0,26.0,31303.0,12601.0,999.0,851996.0,3820.0,308.0,226551.0,1233.0,69.0,38974.0,3207.0,298.0,217207.0,1533.0,313.0,80873.0,2581.0,615.0,149113.0,2030.0,23.0,206994.0,5191.0,396.0,220252.0,827.0,70.0,21157.0,8905.0,551.0,441252.0,651.0,76.0,13152.0,7970.0,475.0,121949.0,3799.0,555.0,124134.0,2.0,3.0,66.0,CO,2017
8021,Conejos County,8.0,-106.17,37.19,3343.37,0.0,0.0,,,,,,,,,,62.0,15.0,2188.0,30.0,6.0,1132.0,,,,,,,,,,12.0,7.0,450.0,,,,0.0,3.0,0.0,,,,230.0,15.0,8440.0,,,,49.0,13.0,1455.0,20.0,9.0,350.0,,,,CO,2017
8027,Custer County,5.0,-105.35,38.11,1916.03,0.0,0.0,,,,,,,,,,65.0,26.0,1904.0,6.0,5.0,118.0,14.0,4.0,446.0,14.0,4.0,925.0,18.0,8.0,532.0,16.0,10.0,753.0,,,,0.0,4.0,0.0,,,,,,,,,,55.0,12.0,959.0,123.0,29.0,3111.0,,,,CO,2017
8023,Costilla County,4.0,-105.42,37.24,3187.67,0.0,0.0,,,,,,,,,,3.0,4.0,262.0,,,,,,,,,,,,,,,,,,,,,,,,,40.0,6.0,1066.0,,,,57.0,7.0,768.0,0.0,3.0,0.0,,,,CO,2017
8001,Adams County,488.0,-91.21,39.98,3065.3,3.01,4.08,11.0,4.0,378.0,916.0,32.0,108343.0,1220.0,17.0,127881.0,23523.0,1555.0,1465221.0,18423.0,752.0,1072966.0,3183.0,154.0,219614.0,3612.0,493.0,195387.0,2881.0,580.0,131828.0,5913.0,877.0,394804.0,1453.0,55.0,83018.0,10116.0,587.0,416127.0,2217.0,152.0,72762.0,25077.0,786.0,1474731.0,1257.0,111.0,29854.0,16520.0,814.0,301968.0,6312.0,917.0,219979.0,0.0,4.0,13.0,CO,2017
8035,Douglas County,321.0,-88.22,39.76,2183.0,2.57,2.66,59.0,31.0,1808.0,208.0,39.0,56552.0,340.0,10.0,60447.0,8684.0,925.0,568649.0,2826.0,370.0,210800.0,8222.0,217.0,772369.0,7079.0,717.0,624604.0,1763.0,768.0,90903.0,8379.0,1815.0,834454.0,1573.0,69.0,282371.0,8167.0,489.0,301410.0,3617.0,205.0,112324.0,13722.0,942.0,768980.0,2833.0,153.0,60173.0,12553.0,572.0,238889.0,5538.0,767.0,176052.0,5.0,6.0,76.0,CO,2017
8037,Eagle County,54.0,-106.72,39.62,4382.99,3.02,0.02,5.0,7.0,203.0,6.0,4.0,468.0,147.0,7.0,13707.0,2803.0,666.0,182201.0,485.0,97.0,25368.0,490.0,40.0,24628.0,879.0,126.0,54351.0,2214.0,419.0,93969.0,1493.0,478.0,96037.0,305.0,7.0,11317.0,2081.0,261.0,79632.0,425.0,40.0,14590.0,2142.0,197.0,147044.0,4070.0,74.0,136613.0,8112.0,295.0,217884.0,1507.0,232.0,52917.0,6.0,6.0,511.0,CO,2017
8065,Lake County,7.0,-122.78,39.05,993.0,0.0,0.0,,,,,,,,,,129.0,35.0,5703.0,18.0,4.0,773.0,8.0,3.0,212.0,31.0,5.0,1235.0,11.0,10.0,445.0,28.0,14.0,1099.0,,,,80.0,17.0,1498.0,60.0,3.0,1750.0,137.0,11.0,6207.0,212.0,12.0,3186.0,247.0,34.0,4506.0,58.0,22.0,1189.0,,,,CO,2017
8067,La Plata County,54.0,-107.85,37.29,4402.36,1.83,0.05,15.0,4.0,233.0,363.0,18.0,38849.0,140.0,8.0,11334.0,2629.0,332.0,157545.0,546.0,58.0,27615.0,335.0,47.0,15939.0,1193.0,110.0,102335.0,437.0,170.0,21383.0,1273.0,348.0,68996.0,269.0,8.0,32194.0,642.0,137.0,23711.0,276.0,33.0,7016.0,3643.0,234.0,183708.0,369.0,57.0,11219.0,4451.0,228.0,88485.0,872.0,190.0,23905.0,,,,CO,2017
8081,Moffat County,13.0,-108.25,40.61,12300.43,1.91,0.0,0.0,4.0,0.0,198.0,11.0,18026.0,0.0,4.0,0.0,187.0,40.0,8649.0,165.0,27.0,9316.0,30.0,6.0,1049.0,94.0,16.0,5730.0,18.0,11.0,554.0,81.0,34.0,2460.0,,,,101.0,15.0,2914.0,15.0,5.0,125.0,506.0,44.0,27749.0,39.0,17.0,813.0,410.0,34.0,6658.0,177.0,41.0,4210.0,,,,CO,2017
8097,Pitkin County,18.0,-106.87,39.2,2520.27,2.45,0.02,,,,,,,,,,621.0,158.0,45530.0,51.0,17.0,3876.0,233.0,30.0,20680.0,284.0,63.0,28425.0,829.0,238.0,47640.0,724.0,255.0,56761.0,457.0,9.0,31051.0,657.0,92.0,28129.0,446.0,29.0,17514.0,750.0,71.0,53807.0,3276.0,57.0,76422.0,6146.0,164.0,171952.0,949.0,127.0,35485.0,,,,CO,2017
8105,Rio Grande County,11.0,-106.38,37.57,2363.05,0.0,0.0,318.0,8.0,11480.0,,,,0.0,4.0,0.0,109.0,38.0,3518.0,325.0,25.0,14153.0,34.0,7.0,972.0,99.0,16.0,5113.0,65.0,19.0,1921.0,53.0,22.0,1790.0,,,,34.0,9.0,1112.0,,,,437.0,27.0,15894.0,23.0,8.0,790.0,308.0,43.0,5645.0,138.0,39.0,4080.0,,,,CO,2017
8017,Cheyenne County,2.0,-101.76,39.8,4614.87,0.0,0.0,,,,242.0,8.0,15874.0,,,,9.0,4.0,227.0,43.0,7.0,2322.0,,,,0.0,4.0,0.0,,,,7.0,4.0,84.0,,,,,,,,,,,,,,,,20.0,3.0,220.0,0.0,3.0,0.0,,,,CO,2017
8011,Bent County,6.0,-103.1,37.94,3991.59,0.0,0.0,,,,,,,0.0,3.0,0.0,,,,,,,,,,45.0,5.0,2445.0,,,,0.0,3.0,0.0,,,,0.0,3.0,0.0,,,,88.0,8.0,3434.0,,,,61.0,5.0,659.0,8.0,5.0,72.0,,,,CO,2017
8025,Crowley County,6.0,-103.83,38.34,2070.36,0.0,0.0,,,,,,,15.0,3.0,516.0,,,,,,,,,,18.0,3.0,754.0,,,,,,,,,,,,,,,,83.0,3.0,2205.0,,,,,,,14.0,4.0,220.0,,,,CO,2017
8033,Dolores County,2.0,-108.46,37.75,2764.63,0.0,0.0,,,,2.0,4.0,297.0,,,,23.0,10.0,1051.0,36.0,5.0,1341.0,,,,,,,3.0,4.0,170.0,2.0,3.0,198.0,,,,,,,,,,0.0,4.0,0.0,,,,35.0,7.0,1655.0,,,,,,,CO,2017
8111,San Juan County,1.0,-107.65,37.76,1005.57,0.0,0.0,,,,,,,,,,25.0,6.0,544.0,,,,,,,,,,6.0,5.0,142.0,4.0,4.0,145.0,,,,,,,,,,0.0,3.0,0.0,36.0,5.0,860.0,79.0,22.0,2616.0,23.0,6.0,799.0,,,,CO,2017
8057,Jackson County,1.0,-96.56,28.92,4199.56,0.0,0.0,12.0,6.0,870.0,0.0,3.0,0.0,,,,19.0,7.0,879.0,,,,,,,,,,,,,13.0,6.0,426.0,,,,,,,,,,,,,13.0,5.0,376.0,54.0,11.0,1165.0,4.0,3.0,35.0,,,,CO,2017
8069,Larimer County,331.0,-105.47,40.68,6822.0,2.62,0.79,62.0,21.0,1625.0,354.0,51.0,21367.0,200.0,10.0,18331.0,10309.0,1261.0,560284.0,5694.0,385.0,594365.0,3296.0,196.0,201407.0,3548.0,600.0,246173.0,2432.0,759.0,116514.0,9493.0,1663.0,681126.0,1968.0,58.0,145055.0,8439.0,611.0,288997.0,2129.0,173.0,44046.0,19147.0,1151.0,916685.0,2475.0,219.0,49636.0,18252.0,949.0,361454.0,5902.0,929.0,173812.0,8.0,8.0,247.0,CO,2017
8075,Logan County,22.0,-89.38,40.11,4778.5,2.1,0.04,27.0,6.0,791.0,161.0,15.0,10459.0,66.0,8.0,5063.0,267.0,57.0,11317.0,147.0,27.0,6437.0,72.0,11.0,2184.0,220.0,36.0,13626.0,52.0,17.0,1490.0,89.0,26.0,4200.0,0.0,3.0,0.0,147.0,20.0,5117.0,,,,1144.0,70.0,46096.0,23.0,6.0,598.0,699.0,46.0,10258.0,277.0,74.0,7084.0,,,,CO,2017
8083,Montezuma County,26.0,-108.63,37.35,5285.2,2.08,0.01,,,,208.0,16.0,23360.0,122.0,8.0,8679.0,516.0,78.0,29718.0,219.0,26.0,10927.0,85.0,18.0,2897.0,177.0,33.0,8439.0,131.0,36.0,4521.0,259.0,73.0,11538.0,,,,236.0,31.0,5660.0,85.0,10.0,2384.0,1436.0,83.0,54961.0,0.0,5.0,0.0,1436.0,89.0,29007.0,248.0,74.0,6023.0,,,,CO,2017
8113,San Miguel County,8.0,-108.47,38.03,3336.7,0.0,0.0,,,,,,,11.0,3.0,1112.0,410.0,97.0,25535.0,35.0,11.0,1527.0,45.0,13.0,2069.0,65.0,16.0,6414.0,249.0,84.0,12119.0,150.0,80.0,7681.0,,,,185.0,48.0,7209.0,76.0,10.0,3344.0,150.0,29.0,6815.0,962.0,22.0,19343.0,1628.0,74.0,44214.0,250.0,41.0,9513.0,,,,CO,2017
8119,Teller County,24.0,-105.18,38.89,1447.58,0.0,0.0,0.0,3.0,0.0,0.0,4.0,0.0,36.0,6.0,2222.0,304.0,117.0,10877.0,46.0,15.0,1770.0,49.0,10.0,1947.0,142.0,36.0,7463.0,107.0,55.0,3271.0,279.0,120.0,12569.0,,,,177.0,44.0,5709.0,0.0,4.0,0.0,530.0,60.0,20303.0,434.0,21.0,11326.0,1735.0,65.0,44079.0,369.0,71.0,9216.0,,,,CO,2017
8013,Boulder County,317.0,-105.36,40.1,1918.01,3.22,3.35,48.0,17.0,1612.0,138.0,21.0,11791.0,343.0,15.0,32987.0,4748.0,831.0,270098.0,10598.0,498.0,1137748.0,6945.0,362.0,810883.0,3965.0,662.0,406818.0,2783.0,773.0,160748.0,25810.0,2945.0,2530464.0,2305.0,56.0,197402.0,6623.0,599.0,287526.0,3184.0,299.0,85283.0,21791.0,1443.0,1102958.0,3264.0,273.0,69816.0,19643.0,937.0,383357.0,6751.0,980.0,233057.0,17.0,8.0,190.0,CO,2017
8039,Elbert County,25.0,-82.84,34.12,4793.03,0.0,0.0,22.0,12.0,698.0,,,,,,,880.0,184.0,44486.0,68.0,20.0,3079.0,20.0,10.0,954.0,72.0,25.0,2877.0,33.0,30.0,907.0,219.0,97.0,12181.0,,,,203.0,49.0,7408.0,23.0,6.0,673.0,141.0,25.0,4057.0,58.0,7.0,2042.0,188.0,27.0,3320.0,155.0,54.0,4610.0,,,,CO,2017
8071,Las Animas County,14.0,-104.06,37.31,12366.44,0.0,0.0,,,,55.0,8.0,3862.0,,,,114.0,38.0,3817.0,40.0,11.0,942.0,27.0,6.0,943.0,115.0,17.0,3267.0,67.0,18.0,1881.0,66.0,26.0,2242.0,,,,52.0,14.0,1545.0,,,,848.0,43.0,31095.0,25.0,10.0,624.0,617.0,45.0,10281.0,200.0,48.0,4438.0,,,,CO,2017
8125,Yuma County,10.0,-102.46,40.02,6135.03,0.0,0.0,0.0,9.0,0.0,37.0,5.0,3024.0,,,,93.0,36.0,3553.0,350.0,32.0,19937.0,30.0,11.0,1499.0,168.0,32.0,9212.0,32.0,13.0,1136.0,84.0,34.0,2621.0,,,,10.0,12.0,403.0,,,,584.0,22.0,24925.0,4.0,3.0,150.0,264.0,29.0,3518.0,101.0,42.0,2267.0,1.0,5.0,15.0,CO,2017
8073,Lincoln County,6.0,-81.21,35.49,6698.08,0.0,0.0,0.0,3.0,0.0,,,,102.0,5.0,7386.0,74.0,11.0,3675.0,,,,33.0,6.0,1961.0,63.0,8.0,3156.0,7.0,4.0,81.0,40.0,10.0,940.0,,,,,,,,,,283.0,11.0,10566.0,,,,273.0,25.0,4359.0,54.0,17.0,1568.0,,,,CO,2017
8107,Routt County,24.0,-106.97,40.45,6133.6,1.95,0.02,,,,0.0,7.0,0.0,0.0,4.0,0.0,1033.0,340.0,53843.0,342.0,63.0,18452.0,89.0,19.0,5205.0,259.0,49.0,19157.0,559.0,153.0,19484.0,599.0,210.0,38221.0,0.0,3.0,0.0,763.0,108.0,38158.0,190.0,18.0,3511.0,1491.0,138.0,75141.0,416.0,59.0,11089.0,5363.0,164.0,95673.0,638.0,132.0,18063.0,,,,CO,2017
8117,Summit County,30.0,-81.53,41.15,1603.92,0.0,0.0,,,,,,,62.0,4.0,6455.0,1087.0,369.0,69816.0,87.0,37.0,4920.0,182.0,28.0,9101.0,216.0,56.0,14662.0,1245.0,340.0,58435.0,617.0,265.0,40689.0,112.0,7.0,5705.0,836.0,162.0,32717.0,119.0,22.0,3130.0,1258.0,115.0,69127.0,4433.0,46.0,90855.0,6846.0,273.0,148360.0,561.0,156.0,17255.0,,,,CO,2017
8003,Alamosa County,16.0,-105.79,37.58,1872.94,1.52,0.04,,,,,,,58.0,4.0,5205.0,325.0,45.0,16421.0,176.0,16.0,7531.0,123.0,15.0,4639.0,352.0,36.0,16854.0,86.0,23.0,2916.0,158.0,34.0,7452.0,0.0,3.0,0.0,169.0,21.0,3778.0,12.0,4.0,368.0,1547.0,78.0,59581.0,50.0,9.0,881.0,864.0,52.0,13188.0,233.0,47.0,5129.0,,,,CO,2017
8019,Clear Creek County,9.0,-105.64,39.68,1026.14,0.0,0.0,,,,675.0,7.0,39628.0,0.0,4.0,0.0,102.0,52.0,3652.0,36.0,21.0,1528.0,,,,13.0,9.0,570.0,22.0,18.0,544.0,64.0,46.0,4151.0,,,,52.0,20.0,2082.0,23.0,4.0,882.0,85.0,18.0,2506.0,779.0,15.0,9032.0,623.0,55.0,14396.0,86.0,15.0,2366.0,,,,CO,2017
8029,Delta County,30.0,-95.67,33.39,2974.66,0.0,0.0,42.0,11.0,3001.0,50.0,6.0,2845.0,48.0,15.0,2926.0,365.0,93.0,15506.0,197.0,31.0,7260.0,128.0,21.0,4313.0,246.0,51.0,10036.0,986.0,42.0,27055.0,176.0,64.0,5230.0,,,,229.0,30.0,5948.0,90.0,8.0,1724.0,1690.0,77.0,60111.0,26.0,18.0,711.0,724.0,83.0,10605.0,268.0,84.0,6087.0,4.0,3.0,52.0,CO,2017
8043,Fremont County,47.0,-95.59,40.73,3972.51,1.72,0.04,3.0,4.0,160.0,56.0,6.0,3452.0,50.0,6.0,3588.0,596.0,125.0,24519.0,89.0,25.0,3386.0,105.0,15.0,4399.0,243.0,50.0,8875.0,188.0,42.0,4466.0,169.0,63.0,4959.0,,,,403.0,32.0,13104.0,7.0,4.0,32.0,2180.0,101.0,76556.0,195.0,26.0,6005.0,1120.0,80.0,18430.0,387.0,87.0,8235.0,,,,CO,2017
8101,Pueblo County,163.0,-104.54,38.19,6213.21,2.3,0.4,17.0,5.0,344.0,0.0,5.0,0.0,433.0,10.0,41778.0,2841.0,337.0,132819.0,1101.0,104.0,63169.0,1000.0,51.0,44345.0,1158.0,220.0,57438.0,650.0,146.0,21818.0,2245.0,238.0,149223.0,423.0,17.0,13698.0,4361.0,156.0,93846.0,597.0,25.0,21195.0,13515.0,407.0,613568.0,755.0,43.0,23936.0,5786.0,335.0,85935.0,2019.0,338.0,48935.0,14.0,4.0,193.0,CO,2017
8085,Montrose County,41.0,-108.24,38.44,5809.62,1.73,0.02,20.0,10.0,670.0,55.0,10.0,4088.0,291.0,16.0,23628.0,1197.0,209.0,61597.0,302.0,57.0,13609.0,151.0,16.0,5256.0,313.0,57.0,18036.0,154.0,57.0,4783.0,555.0,108.0,28866.0,57.0,5.0,2796.0,507.0,70.0,16703.0,45.0,4.0,506.0,3031.0,159.0,118877.0,115.0,23.0,2359.0,1269.0,97.0,22609.0,467.0,111.0,13538.0,,,,CO,2017
8087,Morgan County,28.0,-90.19,39.71,3351.39,2.07,0.02,10.0,6.0,491.0,238.0,14.0,15896.0,202.0,10.0,17435.0,492.0,79.0,26681.0,399.0,44.0,16936.0,369.0,21.0,16219.0,224.0,43.0,13584.0,79.0,30.0,2035.0,118.0,38.0,4565.0,,,,402.0,32.0,16531.0,,,,1465.0,59.0,63752.0,61.0,6.0,579.0,972.0,65.0,13834.0,279.0,71.0,5990.0,,,,CO,2017
8093,Park County,17.0,-105.76,39.11,5726.91,0.0,0.0,,,,,,,,,,314.0,118.0,12417.0,15.0,12.0,771.0,38.0,8.0,2824.0,32.0,8.0,1550.0,37.0,27.0,1724.0,106.0,62.0,4492.0,,,,125.0,37.0,5034.0,15.0,11.0,620.0,87.0,21.0,2585.0,15.0,10.0,462.0,267.0,43.0,5390.0,93.0,27.0,2857.0,,,,CO,2017
8109,Saguache County,6.0,-106.36,38.09,8211.7,1.9,0.01,,,,,,,,,,52.0,18.0,2024.0,245.0,12.0,8607.0,9.0,5.0,372.0,,,,0.0,3.0,0.0,15.0,7.0,365.0,,,,24.0,4.0,788.0,7.0,4.0,391.0,92.0,8.0,2184.0,,,,39.0,7.0,799.0,138.0,18.0,4123.0,,,,CO,2017
8077,Mesa County,149.0,-108.57,39.06,8652.99,1.95,0.27,23.0,6.0,769.0,1503.0,107.0,139429.0,168.0,13.0,14456.0,3826.0,524.0,227871.0,2184.0,246.0,117404.0,1809.0,56.0,46416.0,1511.0,251.0,98834.0,940.0,300.0,37981.0,3502.0,499.0,215901.0,235.0,18.0,13811.0,2612.0,223.0,104968.0,625.0,45.0,14839.0,11214.0,437.0,545087.0,1014.0,72.0,13548.0,6575.0,337.0,120384.0,2303.0,421.0,68632.0,6.0,6.0,103.0,CO,2017
8099,Prowers County,12.0,-102.41,37.95,4258.79,1.7,0.03,,,,66.0,3.0,2598.0,39.0,8.0,2397.0,147.0,36.0,3670.0,105.0,15.0,4435.0,50.0,9.0,1693.0,191.0,31.0,9154.0,22.0,12.0,703.0,91.0,26.0,2515.0,,,,86.0,6.0,1779.0,,,,673.0,31.0,23794.0,11.0,3.0,182.0,375.0,35.0,4932.0,115.0,37.0,3119.0,,,,CO,2017
8053,Hinsdale County,1.0,-107.33,37.81,2911.67,0.0,0.0,,,,,,,,,,25.0,11.0,1300.0,,,,,,,,,,15.0,7.0,541.0,,,,,,,,,,,,,,,,,,,13.0,17.0,797.0,9.0,8.0,253.0,,,,CO,2017
8041,El Paso County,675.0,-106.22,31.81,5516.55,2.45,2.54,16.0,16.0,573.0,169.0,16.0,15691.0,180.0,11.0,14844.0,14182.0,1801.0,763628.0,5966.0,526.0,405186.0,9264.0,328.0,570941.0,11428.0,1227.0,783101.0,4472.0,1315.0,189233.0,23426.0,2642.0,1867094.0,2656.0,86.0,192472.0,20122.0,975.0,929095.0,7168.0,297.0,250292.0,39235.0,2129.0,1873988.0,3765.0,284.0,72596.0,30171.0,1374.0,585682.0,22576.0,1692.0,821112.0,36.0,12.0,561.0,CO,2017
8121,Washington County,5.0,-96.39,30.22,6535.75,0.0,0.0,4.0,4.0,274.0,,,,,,,23.0,10.0,756.0,45.0,6.0,2540.0,9.0,3.0,162.0,37.0,8.0,1522.0,8.0,5.0,78.0,22.0,10.0,650.0,,,,,,,,,,38.0,7.0,1264.0,,,,29.0,5.0,399.0,30.0,14.0,574.0,,,,CO,2017
8049,Grand County,15.0,-106.14,40.1,4841.81,0.0,0.0,8.0,6.0,331.0,0.0,3.0,0.0,69.0,6.0,5125.0,579.0,162.0,26720.0,16.0,10.0,933.0,28.0,9.0,1476.0,105.0,28.0,5727.0,456.0,92.0,14476.0,888.0,82.0,44911.0,,,,209.0,48.0,7482.0,21.0,6.0,458.0,424.0,37.0,19983.0,2198.0,32.0,26309.0,2117.0,136.0,51025.0,214.0,59.0,5652.0,,,,CO,2017
8005,Arapahoe County,627.0,-104.36,39.64,2086.14,2.99,8.55,55.0,6.0,3845.0,605.0,82.0,75962.0,178.0,13.0,18322.0,21180.0,1775.0,1391464.0,12285.0,799.0,1186099.0,26707.0,518.0,2457137.0,26115.0,1664.0,2272054.0,5680.0,1354.0,329405.0,24701.0,2997.0,2056964.0,14680.0,203.0,1538436.0,27468.0,1129.0,1190802.0,5690.0,303.0,255163.0,38007.0,2228.0,1966016.0,4736.0,254.0,331810.0,29196.0,1414.0,571705.0,12594.0,1603.0,472168.0,44.0,10.0,376.0,CO,2017
8089,Otero County,18.0,-103.74,37.89,3290.42,1.85,0.02,16.0,5.0,871.0,,,,86.0,15.0,4758.0,146.0,25.0,6474.0,248.0,27.0,7912.0,125.0,12.0,5575.0,138.0,24.0,6750.0,73.0,13.0,2388.0,117.0,27.0,3730.0,,,,24.0,9.0,672.0,,,,1284.0,55.0,44285.0,12.0,5.0,201.0,575.0,49.0,8080.0,148.0,46.0,3292.0,0.0,3.0,0.0,CO,2017
8014,Broomfield County,64.0,-105.05,39.94,86.96,2.25,17.44,,,,30.0,6.0,3440.0,,,,3570.0,142.0,227830.0,1383.0,96.0,120500.0,5925.0,66.0,661206.0,2436.0,132.0,173825.0,422.0,147.0,23164.0,3919.0,405.0,369914.0,9496.0,33.0,767628.0,1553.0,109.0,69998.0,833.0,51.0,26730.0,2684.0,196.0,119440.0,410.0,36.0,7099.0,3617.0,176.0,79617.0,1092.0,168.0,40994.0,,,,CO,2017
9009,New Haven County,862.0,-72.91,41.41,1609.22,3.65,8.0,18.0,6.0,350.0,169.0,8.0,6274.0,1602.0,25.0,179643.0,12418.0,1695.0,876927.0,17501.0,979.0,1620173.0,7928.0,362.0,650753.0,11265.0,1003.0,1098894.0,4903.0,731.0,213230.0,14537.0,1833.0,1221557.0,7977.0,113.0,708130.0,15667.0,985.0,600773.0,39291.0,314.0,2194373.0,76989.0,2592.0,3695634.0,4712.0,312.0,105065.0,30126.0,2047.0,551239.0,13743.0,2229.0,444082.0,23.0,17.0,484.0,CT,2017
9005,Litchfield County,184.0,-73.26,41.76,2446.2,2.08,0.26,41.0,17.0,1102.0,110.0,12.0,4393.0,147.0,8.0,19756.0,3165.0,630.0,221919.0,857.0,153.0,50256.0,719.0,91.0,47407.0,1262.0,202.0,82124.0,459.0,143.0,21761.0,1703.0,371.0,87895.0,362.0,20.0,24924.0,1715.0,342.0,64809.0,3160.0,71.0,136621.0,9173.0,511.0,375419.0,1510.0,127.0,36811.0,5019.0,436.0,101947.0,2268.0,508.0,68566.0,1.0,4.0,30.0,CT,2017
9003,Hartford County,897.0,-72.74,41.79,1943.9,3.63,5.93,41.0,11.0,1021.0,154.0,10.0,14154.0,2842.0,39.0,326901.0,17265.0,1789.0,1271287.0,21424.0,1105.0,1505173.0,13211.0,423.0,1310728.0,53515.0,1680.0,6428106.0,5057.0,869.0,258131.0,30402.0,2254.0,2448709.0,8510.0,249.0,968350.0,27008.0,1276.0,1151153.0,13022.0,315.0,467728.0,86835.0,3002.0,4216570.0,7431.0,358.0,145937.0,37174.0,2155.0,718923.0,17692.0,2524.0,647930.0,13.0,18.0,353.0,CT,2017
